[
  {
    "name": "GEO-SEVER DOO SOMBOR",
    "url": "http://www.scoring.rs/Firma/GEO-SEVER%20DOO%20SOMBOR_209251",
    "county": "Sombor",
    "full_name": "PRIVREDNO DRUŠTVO ZA OBAVLJANJE GEODETSKIH USLUGA GEO-SEVER DOO SOMBOR",
    "location": "SOMBOR",
    "address": "VENAC RADOMIRA PUTNIKA 36A",
    "phone": "+381 25 436807",
    "mb": "20799480",
    "pib": "107424741",
    "active_funds": "7.102",
    "income": "13.427",
    "neto": "1.872",
    "employees": "7",
    "score": "A"
  },
  {
    "name": "BEZDANSKI RIBNJAK DOO SOMBOR",
    "url": "http://www.scoring.rs/Firma/BEZDANSKI%20RIBNJAK%20DOO%20SOMBOR_140199",
    "county": "Sombor",
    "full_name": "BEZDANSKI RIBNJAK DRUŠTVO SA OGRANIČENOM ODGOVORNOŠĆU ZA PROIZVODNJU RIBE, TRGOVINU I USLUGE, SOMBOR",
    "location": "SOMBOR",
    "address": "VENAC ŽIVOJINA MIŠIĆA 37",
    "mb": "20037326",
    "pib": "103858095",
    "active_funds": "52.600",
    "income": "30.002",
    "neto": "872",
    "employees": "3",
    "score": "CCC"
  },
  {
    "name": "PRODUKT KOMERC DOOwww.produkt.rs",
    "url": "http://www.scoring.rs/Firma/PRODUKT%20KOMERC%20DOO_47342",
    "county": "Sombor",
    "full_name": "PRODUKT-KOMERC DRUŠTVO SA OGRANIČENOM ODGOVORNOŠĆU ZA TRGOVINSKE DELATNOSTI SOMBOR",
    "location": "SOMBOR",
    "address": "JUG3 STAPARSKI PUT /",
    "phone": "02529865",
    "website": "www.produkt.rs",
    "mb": "08257361",
    "pib": "100612056",
    "active_funds": "113.219",
    "income": "214.727",
    "neto": "-10.356",
    "employees": "31",
    "score": "BBB"
  },
  {
    "name": "KURUZAR DOO STAPAR",
    "url": "http://www.scoring.rs/Firma/KURUZAR%20DOO%20STAPAR_62013",
    "county": "Sombor",
    "full_name": "PREDUZEĆE ZA POLJOPRIVREDNU PROIZVODNJU OBRADU DRVETA I KOŽE KURUZAR DOO STAPAR",
    "location": "STAPAR",
    "address": "DOKTORA STEVANA POPOVIĆA 53",
    "phone": "0255827979",
    "mb": "08758727",
    "pib": "101839989",
    "active_funds": "18.863",
    "income": "26.164",
    "neto": "2.861",
    "employees": "10",
    "score": "C"
  },
  {
    "name": "ARALICA DOO BEZDAN",
    "url": "http://www.scoring.rs/Firma/ARALICA%20DOO%20BEZDAN_138648",
    "county": "Sombor",
    "full_name": "PRIVREDNO DRUŠTVO ZA PROIZVODNJU TRGOVINU I USLUGE ARALICA DOO BEZDAN",
    "location": "BEZDAN",
    "address": "NOVA 45",
    "mb": "20020237",
    "pib": "103817121",
    "active_funds": "15.489",
    "income": "96.590",
    "neto": "167",
    "employees": "3",
    "score": "DDD"
  },
  {
    "name": "PONOR DOO",
    "url": "http://www.scoring.rs/Firma/PONOR%20DOO_51781",
    "county": "Sombor",
    "full_name": "PREDUZEĆE ZA PROIZVODNJU I PROMET ROBA I USLUGA PONOR DOO, SOMBOR",
    "location": "SOMBOR",
    "address": "GAKOVAČKI PUT 11",
    "mb": "08538344",
    "pib": "102405622",
    "active_funds": "84.856",
    "income": "154.155",
    "neto": "5.344",
    "employees": "8",
    "score": "A"
  },
  {
    "name": "BFZ KUĆA LEPOTE SOMBOR",
    "url": "http://www.scoring.rs/Firma/BFZ%20KU%C4%86A%20LEPOTE%20SOMBOR_41232",
    "county": "Sombor",
    "full_name": "BERBERSKO FRIZERSKA ZADRUGA KUĆA LEPOTE SOMBOR",
    "location": "SOMBOR",
    "address": "VENAC STEPE STEPANOVIĆA 22",
    "phone": "02522039",
    "mb": "08046743",
    "pib": "100614888",
    "active_funds": "6.230",
    "income": "8.557",
    "neto": "535",
    "employees": "19",
    "score": "BBB"
  },
  {
    "name": "/",
    "url": "http://www.scoring.rs/Firma/-_44626",
    "county": "Sombor",
    "full_name": "ZEMLJORADNIČKA ZADRUGA I VOJVODJANSKA STAPAR",
    "location": "STAPAR",
    "address": "KARAĐORĐEV PLAC 84",
    "phone": "0255827704",
    "mb": "08167427",
    "pib": "100016421",
    "active_funds": "18.729",
    "income": "53.576",
    "neto": "-26.306",
    "employees": "6",
    "score": "A"
  },
  {
    "name": "KARTON PLUS",
    "url": "http://www.scoring.rs/Firma/KARTON%20PLUS_158510",
    "county": "Sombor",
    "full_name": "KARTON PLUS DOO, SOMBOR",
    "location": "Sombor",
    "address": "APATINSKI PUT BB",
    "phone": "025419155",
    "mb": "20239549",
    "pib": "104792658",
    "active_funds": "39.112",
    "income": "78.842",
    "neto": "1.926",
    "employees": "21",
    "score": "B"
  },
  {
    "name": "ZEMLJORADNIČKA ZADRUGA KLJAJIĆEVO, KLJAJIĆEVO",
    "url": "http://www.scoring.rs/Firma/ZEMLJORADNI%C4%8CKA%20ZADRUGA%20KLJAJI%C4%86EVO%2c%20KLJAJI%C4%86EVO_44631",
    "county": "Sombor",
    "full_name": "ZEMLJORADNIČKA ZADRUGA KLJAJIĆEVO, KLJAJIĆEVO",
    "location": "KLJAJIĆEVO",
    "address": "NIKOLE TESLE BB",
    "phone": "025852000",
    "mb": "08167567",
    "pib": "100122353",
    "active_funds": "333.104",
    "income": "273.439",
    "neto": "5.776",
    "employees": "88",
    "score": "BBB"
  },
  {
    "name": "VETERINARSKA STANICA SOMBOR DOO",
    "url": "http://www.scoring.rs/Firma/VETERINARSKA%20STANICA%20SOMBOR%20DOO_46978",
    "county": "Sombor",
    "full_name": "VETERINARSKA STANICA SOMBOR DRUŠTVO SA OGRANIČENOM ODGOVORNOŠĆU SOMBOR",
    "location": "SOMBOR",
    "address": "STAPARSKI PUT 37",
    "phone": "02525838",
    "mb": "08246025",
    "pib": "100612835",
    "active_funds": "7.494",
    "income": "36.066",
    "neto": "26",
    "employees": "19",
    "score": "DD"
  },
  {
    "name": "VOŽDwww.vozd.iz.rs",
    "url": "http://www.scoring.rs/Firma/VO%C5%BDD_49043",
    "county": "Sombor",
    "full_name": "VOŽD DRUŠTVO SA OGRANIČENOM ODGOVORNOŠĆU ZA TRGOVINU I USLUGE SOMBOR",
    "location": "SOMBOR",
    "address": "BEZDANSKI PUT BB",
    "phone": "025461591",
    "website": "www.vozd.iz.rs",
    "mb": "08330212",
    "pib": "100275427",
    "active_funds": "717.736",
    "income": "864.239",
    "neto": "10.883",
    "employees": "21",
    "score": "C"
  },
  {
    "name": "GRAFOS DOO SOMBOR",
    "url": "http://www.scoring.rs/Firma/GRAFOS%20DOO%20SOMBOR_54934",
    "county": "Sombor",
    "full_name": "DRUŠTVO SA OGRANIČENOM ODGOVORNOŠĆU ZA TRGOVINU I USLUGE GRAFOS, SOMBOR",
    "location": "SOMBOR",
    "address": "TRG SVETOG TROJSTVA 1",
    "phone": "02536366",
    "mb": "08641048",
    "pib": "101841221",
    "active_funds": "4.007",
    "income": "15.786",
    "neto": "27",
    "employees": "7",
    "score": "DDD"
  },
  {
    "name": "DOO DUCKO, DOROSLOVO",
    "url": "http://www.scoring.rs/Firma/DOO%20DUCKO%2c%20DOROSLOVO_151367",
    "county": "Sombor",
    "full_name": "DOO DUCKO, DOROSLOVO",
    "location": "DOROSLOVO",
    "address": "HERCEG JANOŠA 23",
    "phone": "025764585",
    "mb": "20160632",
    "pib": "104412309",
    "active_funds": "14.549",
    "income": "31.148",
    "neto": "5.613",
    "employees": "14",
    "score": "BB"
  },
  {
    "name": "GARDwww.gardobezbedjenje.rs",
    "url": "http://www.scoring.rs/Firma/GARD_60199",
    "county": "Sombor",
    "full_name": "GARD ZA FIZIČKO OBEZBEDJENJE LICA I IMOVINE DOO, SOMBOR",
    "location": "Sombor",
    "address": "ŠTROSMAJEROVA 1",
    "website": "www.gardobezbedjenje.rs",
    "mb": "08730342",
    "pib": "101843571",
    "active_funds": "6.162",
    "income": "27.688",
    "neto": "158",
    "employees": "34",
    "score": "B"
  },
  {
    "name": "AQUASANA NO 1 DOO SOMBOR",
    "url": "http://www.scoring.rs/Firma/AQUASANA%20NO%201%20DOO%20SOMBOR_208562",
    "county": "Sombor",
    "full_name": "AQUASANA NO 1 DOO ZA DISTRIBUCIJU I PREČIŠĆAVANJE VODE SOMBOR",
    "location": "SOMBOR",
    "address": "NIKOLE VUKIĆEVIĆA 5",
    "phone": "+381 63 262270",
    "mb": "20791756",
    "pib": "107386441",
    "active_funds": "14.598",
    "income": "12.767",
    "neto": "448",
    "employees": "5",
    "score": "DDD"
  },
  {
    "name": "AGRO-BASARA DOO KLJAJIĆEVO",
    "url": "http://www.scoring.rs/Firma/AGRO-BASARA%20DOO%20KLJAJI%C4%86EVO_867269",
    "county": "Sombor",
    "full_name": "AGRO-BASARA DOO KLJAJIĆEVO",
    "location": "KLJAJIĆEVO",
    "address": "MILUTINA KARASA BB",
    "phone": "+381 63 7302976",
    "mb": "20987731",
    "pib": "108380276",
    "active_funds": "71.467",
    "income": "142.577",
    "neto": "483",
    "employees": "7",
    "score": "DDD"
  },
  {
    "name": "MERKUR DOO SOMBORwww.merkur.rs",
    "url": "http://www.scoring.rs/Firma/MERKUR%20DOO%20SOMBOR_44959",
    "county": "Sombor",
    "full_name": "TRGOVINA NA VELIKO I MALO MERKUR DOO, SOMBOR",
    "location": "SOMBOR",
    "address": "APATINSKI PUT 31",
    "phone": "025430370",
    "website": "www.merkur.rs",
    "mb": "08177589",
    "pib": "100016464",
    "active_funds": "55.013",
    "income": "101.071",
    "neto": "3.508",
    "employees": "12",
    "score": "BB"
  },
  {
    "name": "MERKUR BOJE I LAKOVI DOO SOMBORwww.merkursombor.com",
    "url": "http://www.scoring.rs/Firma/MERKUR%20BOJE%20I%20LAKOVI%20DOO%20SOMBOR_47186",
    "county": "Sombor",
    "full_name": "MERKUR BOJE I LAKOVI DRUŠTVO SA OGRANIČENOM ODGOVORNOŠĆU ZA PROIZVODNJU I TRGOVINU, SOMBOR",
    "location": "SOMBOR",
    "address": "ARSENIJA ČARNOJEVIĆA 21",
    "phone": "025433880",
    "website": "www.merkursombor.com",
    "mb": "08252033",
    "pib": "100274965",
    "active_funds": "38.754",
    "income": "5.328",
    "neto": "-3.637",
    "employees": "3",
    "score": "BB"
  },
  {
    "name": "DOO DOROSLOVO-PROMET DOROSLOVO",
    "url": "http://www.scoring.rs/Firma/DOO%20DOROSLOVO-PROMET%20DOROSLOVO_45783",
    "county": "Sombor",
    "full_name": "PREDUZEĆE DOROSLOVO-PROMET ZA SPOLJNU I UNUTRAŠNJU TRGOVINU NA VELIKO I MALO DOO DOROSLOVO",
    "location": "DOROSLOVO",
    "address": "PETEFI ŠANDORA 13",
    "phone": "025862436",
    "mb": "08204403",
    "pib": "100273614",
    "active_funds": "7.365",
    "income": "21.001",
    "neto": "314",
    "employees": "4",
    "score": "BB"
  },
  {
    "name": "OTO-LUX DOO ALEKSA ŠANTIĆ",
    "url": "http://www.scoring.rs/Firma/OTO-LUX%20DOO%20ALEKSA%20%C5%A0ANTI%C4%86_49590",
    "county": "Sombor",
    "full_name": "OTO-LUX DRUŠTVO SA OGRANIČENOM ODGOVORNOŠĆU ZA TRGOVINU I USLUGE, ALEKSA ŠANTIĆ",
    "location": "ALEKSA ŠANTIĆ",
    "address": "VELJKA VLAHOVIĆA 20",
    "mb": "08365393",
    "pib": "100614757",
    "active_funds": "10.810",
    "income": "2.908",
    "neto": "-1.407",
    "employees": "3",
    "score": "CCC"
  },
  {
    "name": "MMV ALATI DOO SOMBORwww.mmv.co.rs",
    "url": "http://www.scoring.rs/Firma/MMV%20ALATI%20DOO%20SOMBOR_205997",
    "county": "Sombor",
    "full_name": "MMV ALATI DOO SOMBOR",
    "location": "SOMBOR",
    "address": "KONJOVIĆEVA 6",
    "phone": "0255155015",
    "website": "www.mmv.co.rs",
    "mb": "20762624",
    "pib": "107248846",
    "active_funds": "114.207",
    "income": "149.377",
    "neto": "3.338",
    "employees": "8",
    "score": "DDD"
  },
  {
    "name": "ORIS DOO SOMBORwww.oris.rs",
    "url": "http://www.scoring.rs/Firma/ORIS%20DOO%20SOMBOR_50212",
    "county": "Sombor",
    "full_name": "OGRIZOVIĆ RADE I SINOVI-ORIS DOO ZA DEZINFEKCIJU DEZINSEKCIJU I DERATIZACIJU, SOMBOR",
    "location": "SOMBOR",
    "address": "BEZDANSKI PUT BB",
    "phone": "0255155055",
    "website": "www.oris.rs",
    "mb": "08405948",
    "pib": "100660867",
    "active_funds": "61.313",
    "income": "105.857",
    "neto": "7.840",
    "employees": "42",
    "score": "B"
  },
  {
    "name": "MASTER LINE DOO SOMBORwww.masterline.co.rs",
    "url": "http://www.scoring.rs/Firma/MASTER%20LINE%20DOO%20SOMBOR_166342",
    "county": "Sombor",
    "full_name": "MASTER LINE DOO SOMBOR",
    "location": "SOMBOR",
    "address": "KONJOVIĆEVA 15",
    "phone": "025430920",
    "website": "www.masterline.co.rs",
    "mb": "20325755",
    "pib": "105279198",
    "active_funds": "312.712",
    "income": "662.068",
    "neto": "22.846",
    "employees": "3",
    "score": "BB"
  },
  {
    "name": "AGROBEZDAN DOO BEZDAN",
    "url": "http://www.scoring.rs/Firma/AGROBEZDAN%20DOO%20BEZDAN_54978",
    "county": "Sombor",
    "full_name": "DRUŠRVO S OGRANIČENOM ODGOVORNOŠĆU ZA PROIZVODNJU PROMET I USLUGE AGROBEZDAN, BEZDAN",
    "location": "BEZDAN",
    "address": "KOLUTSKA 51",
    "phone": "025810065",
    "mb": "08642044",
    "pib": "100605506",
    "active_funds": "87.914",
    "income": "264.024",
    "neto": "675",
    "employees": "13",
    "score": "CC"
  },
  {
    "name": "Z. Z. POLJOPRIVREDNIK SOMBORwww.zadrugarka.com",
    "url": "http://www.scoring.rs/Firma/Z.%20Z.%20POLJOPRIVREDNIK%20SOMBOR_53204",
    "county": "Sombor",
    "full_name": "ZEMLJORADNIČKA ZADRUGA POLJOPRIVREDNIK, SOMBOR",
    "location": "SOMBOR",
    "address": "FRUŠKOGORSKA 20",
    "phone": "025440180",
    "website": "www.zadrugarka.com",
    "mb": "08597367",
    "pib": "100612538",
    "active_funds": "39.677",
    "income": "169.274",
    "neto": "1.001",
    "employees": "4",
    "score": "AA"
  },
  {
    "name": "AGENS-PROMET OD SOMBOR",
    "url": "http://www.scoring.rs/Firma/AGENS-PROMET%20OD%20SOMBOR_47581",
    "county": "Sombor",
    "full_name": "AGENS-PROMET ORTAČKO DRUŠTVO BRANISLAVE SAUER I DRUGI, ZA PROIZVODNJU, TRGOVINU, PRUŽANJE USLUGA I POSREDNIŠTVO SOMBOR",
    "location": "SOMBOR",
    "address": "VALJEVSKA 9",
    "phone": "02535259",
    "mb": "08266123",
    "pib": "100611674",
    "active_funds": "1.148",
    "income": "2.730",
    "neto": "11",
    "employees": "3",
    "score": "BB"
  },
  {
    "name": "MARAwww.mara-sombor.com",
    "url": "http://www.scoring.rs/Firma/MARA_164307",
    "county": "Sombor",
    "full_name": "MARA DOO ZA PROIZVODNJU SMRZNUTOG TESTA, OBLATNI I TESTANIH KORA SOMBOR",
    "location": "SOMBOR",
    "address": "STAPARSKI PUT BB",
    "phone": "025437195",
    "website": "www.mara-sombor.com",
    "mb": "20303352",
    "pib": "105059403",
    "active_funds": "350.632",
    "income": "273.759",
    "neto": "34.187",
    "employees": "69",
    "score": "BBB"
  },
  {
    "name": "AMAZON D.O.O. SOMBOR",
    "url": "http://www.scoring.rs/Firma/AMAZON%20D.O.O.%20SOMBOR_940663",
    "county": "Sombor",
    "full_name": "PRIVREDNO DRUŠTVO ZA TRGOVINU NA VELIKO I MALO AMAZON D.O.O. SOMBOR",
    "location": "SOMBOR",
    "address": "KARAĐORĐEVA 22",
    "mb": "21135828",
    "pib": "109165879",
    "active_funds": "3.113",
    "income": "111.300",
    "neto": "406",
    "employees": "15",
    "score": "DDD"
  },
  {
    "name": "TISA DOO BEZDAN",
    "url": "http://www.scoring.rs/Firma/TISA%20DOO%20BEZDAN_51990",
    "county": "Sombor",
    "full_name": "TISA DOO PREDUZEĆE ZA PROIZVODNJU, INŽENJERING, USLUGE I TRGOVINU BEZDAN",
    "location": "BEZDAN",
    "address": "KANALSKA OBALA 16",
    "phone": "025810849",
    "mb": "08552622",
    "pib": "101839639",
    "active_funds": "50.252",
    "income": "178.143",
    "neto": "4.656",
    "employees": "28",
    "score": "CCC"
  },
  {
    "name": "ELEKTROMATERIJAL ĐOLE D.O.O, SOMBOR",
    "url": "http://www.scoring.rs/Firma/ELEKTROMATERIJAL%20%C4%90OLE%20D.O.O%2c%20SOMBOR_137050",
    "county": "Sombor",
    "full_name": "DRUŠTVO ZA TRGOVINU, EHPORT-IMPORT I USLUGE, ELEKTROMATERIJAL ĐOLE D.O.O. SOMBOR",
    "location": "SOMBOR",
    "address": "STAPARSKI PUT 41",
    "phone": "025434090",
    "mb": "20002638",
    "pib": "103697352",
    "active_funds": "30.842",
    "income": "56.332",
    "neto": "1",
    "employees": "4",
    "score": "DD"
  },
  {
    "name": "VUJEVIĆ",
    "url": "http://www.scoring.rs/Firma/VUJEVI%C4%86_64277",
    "county": "Sombor",
    "full_name": "Društvo sa ograničenom odgovornošću Preduzeće za proizvodnju i usluge Vujević Sombor",
    "location": "Sombor",
    "address": "MILETA PROTIĆA 8",
    "phone": "025442090",
    "mb": "08788014",
    "pib": "102880090",
    "active_funds": "106.598",
    "income": "129.048",
    "neto": "7.249",
    "employees": "8",
    "score": "B"
  },
  {
    "name": "MIDEX K 2 DOO SOMBORwww.midexk2.rs",
    "url": "http://www.scoring.rs/Firma/MIDEX%20K%202%20DOO%20SOMBOR_65915",
    "county": "Sombor",
    "full_name": "MIDEX K 2 DRUŠTVO SA OGRANIČENOM ODGOVORNOŠĆU ZA PROIZVODNJU PROMET I MARKETING SOMBOR",
    "location": "SOMBOR",
    "address": "BUKOVAC 133 A",
    "phone": "021466375",
    "website": "www.midexk2.rs",
    "mb": "08808350",
    "pib": "103271743",
    "active_funds": "120.757",
    "income": "120.554",
    "neto": "3.603",
    "employees": "11",
    "score": "BB"
  },
  {
    "name": "AGRO KOZAK",
    "url": "http://www.scoring.rs/Firma/AGRO%20KOZAK_205969",
    "county": "Sombor",
    "full_name": "PRIVREDNO DRUŠTVO ZA TRGOVINU I USLUGE AGRO KOZAK DRUŠTVO S OGRANIČENOM ODGOVORNOŠĆU, SOMBOR",
    "location": "Sombor",
    "address": "DUŠANA MUDRAKA 23",
    "phone": "+381 69 3230032",
    "mb": "20762314",
    "pib": "107246952",
    "active_funds": "87.971",
    "income": "903.316",
    "neto": "3.731",
    "employees": "3",
    "score": "CCC"
  },
  {
    "name": "TIP DOO SOMBOR",
    "url": "http://www.scoring.rs/Firma/TIP%20DOO%20SOMBOR_48661",
    "county": "Sombor",
    "full_name": "TIP PROIZVODNO-TRGOVINSKO DOO SOMBOR",
    "location": "SOMBOR",
    "address": "8. MARTA 20",
    "mb": "08310114",
    "pib": "101842013",
    "active_funds": "8.600",
    "income": "15.382",
    "neto": "53",
    "employees": "3",
    "score": "BBB"
  },
  {
    "name": "SAPUTNIK-M DOO SOMBOR",
    "url": "http://www.scoring.rs/Firma/SAPUTNIK-M%20DOO%20SOMBOR_47716",
    "county": "Sombor",
    "full_name": "SAPUTNIK-M DOO, SOMBOR",
    "location": "SOMBOR",
    "address": "TRG SVETOG ĐORĐA 6",
    "phone": "025421504",
    "mb": "08270643",
    "pib": "100122968",
    "active_funds": "128.746",
    "income": "161.616",
    "neto": "6.567",
    "employees": "35",
    "score": "B"
  },
  {
    "name": "ZZ STAPAR STAPAR",
    "url": "http://www.scoring.rs/Firma/ZZ%20STAPAR%20STAPAR_48638",
    "county": "Sombor",
    "full_name": "ZEMLJORADNIČKA ZADRUGA STAPAR STAPAR",
    "location": "STAPAR",
    "address": "KARAĐORĐEV PLAC 109",
    "phone": "025827604",
    "mb": "08308977",
    "pib": "100275697",
    "active_funds": "92.206",
    "income": "150.016",
    "neto": "305",
    "employees": "5",
    "score": "E"
  },
  {
    "name": "SINAGOGA DOO SOMBORwww.sinagoga.co.rs",
    "url": "http://www.scoring.rs/Firma/SINAGOGA%20DOO%20SOMBOR_46970",
    "county": "Sombor",
    "full_name": "SINAGOGA DRUŠTVO SA OGRANIČENOM ODGOVORNOŠĆU ZA TRGOVINU NA VELIKO I MALO, SOMBOR",
    "location": "SOMBOR",
    "address": "STAPARSKI PUT BB",
    "phone": "025460760",
    "website": "www.sinagoga.co.rs",
    "mb": "08245649",
    "pib": "100016729",
    "active_funds": "1.775.896",
    "income": "4.484.963",
    "neto": "87.283",
    "employees": "167",
    "score": "C"
  },
  {
    "name": "APRILIA DOO SOMBOR",
    "url": "http://www.scoring.rs/Firma/APRILIA%20DOO%20SOMBOR_181881",
    "county": "Sombor",
    "full_name": "APRILIA DRUŠTVO SA OGRANIČENOM ODGOVORMOŠĆU ZA TRGOVINU POLJOPRIVREDNIM PROIZVODIMA I USLUGE ZA POSREDOVANJE, REKLAMU, USLUGE I TRGOVINU DOO SOMBOR",
    "location": "SOMBOR",
    "address": "JOSIPA PANČIĆA 16",
    "mb": "20496681",
    "pib": "105942740",
    "active_funds": "29.935",
    "income": "24.727",
    "neto": "515",
    "employees": "6",
    "score": "CC"
  },
  {
    "name": "AGROKOPRIĆ DOO SOMBOR",
    "url": "http://www.scoring.rs/Firma/AGROKOPRI%C4%86%20DOO%20SOMBOR_143679",
    "county": "Sombor",
    "full_name": "AGROKOPRIĆ DOO ZA PROIZVODNJU, USLUGE I PROMET SOMBOR",
    "location": "SOMBOR",
    "address": "VERE GUCUNJE 18",
    "mb": "20075724",
    "pib": "104028364",
    "active_funds": "24.555",
    "income": "12.063",
    "neto": "-3.343",
    "employees": "3",
    "score": "DD"
  },
  {
    "name": "ODŽAČAR AD SOMBOR",
    "url": "http://www.scoring.rs/Firma/OD%C5%BDA%C4%8CAR%20AD%20SOMBOR_43738",
    "county": "Sombor",
    "full_name": "AKCIONARSKO DRUŠTVO ZA ODRŽAVANJE DIMOVODNIH I LOŽIŠNIH UREĐAJA ODŽAČAR SOMBOR",
    "location": "SOMBOR",
    "address": "APATINSKI PUT 16",
    "phone": "025428700",
    "mb": "08131481",
    "pib": "100122520",
    "active_funds": "10.915",
    "income": "3.307",
    "neto": "-4.532",
    "employees": "9",
    "score": "DDD"
  },
  {
    "name": "AGRARIUM DOO SOMBOR",
    "url": "http://www.scoring.rs/Firma/AGRARIUM%20DOO%20SOMBOR_67739",
    "county": "Sombor",
    "full_name": "AGRARIUM PREDUZEĆE ZA PROIZVODNJU TRGOVINU PROMET ROBA I USLUGA DOO SOMBOR",
    "location": "SOMBOR",
    "address": "FILIPA KLJAJIĆA BB",
    "phone": "025422305",
    "mb": "08829667",
    "pib": "103629427",
    "active_funds": "107.418",
    "income": "61.382",
    "neto": "765",
    "employees": "4",
    "score": "C"
  },
  {
    "name": "SINO COMMERCE",
    "url": "http://www.scoring.rs/Firma/SINO%20COMMERCE_55287",
    "county": "Sombor",
    "full_name": "SINO COMMERCE DRUŠTVO SA OGRANIČENOM ODGOVORNOŠĆU ZA UNUTRAŠNJU I SPOLJNU TRGOVINU, SOMBOR",
    "location": "Sombor",
    "address": "BANATSKA 30",
    "phone": "025416924",
    "mb": "08648689",
    "pib": "100275187",
    "active_funds": "54.826",
    "income": "65.814",
    "neto": "2.979",
    "employees": "4",
    "score": "BBB"
  },
  {
    "name": "TRESTELLEwww.trestelle.rs",
    "url": "http://www.scoring.rs/Firma/TRESTELLE_52581",
    "county": "Sombor",
    "full_name": "TRESTELLE DRUŠTVO SA OGRANIČENOM ODGOVORNOŠĆU ZA TRGOVINU, TURIZAM I USLUGE SOMBOR",
    "location": "Sombor",
    "address": "XII VOJVOĐANSKE UDARNE BRIGADE 89",
    "phone": "025460799",
    "website": "www.trestelle.rs",
    "mb": "08580014",
    "pib": "100016753",
    "active_funds": "23.590",
    "income": "72.126",
    "neto": "180",
    "employees": "3",
    "score": "A"
  },
  {
    "name": "TERMOVOD DOO SOMBOR",
    "url": "http://www.scoring.rs/Firma/TERMOVOD%20DOO%20SOMBOR_51213",
    "county": "Sombor",
    "full_name": "PRIVREDNO DRUŠTVO TERMOVOD DOO ZA TRGOVINU NA VELIKO I MALO, SOMBOR",
    "location": "SOMBOR",
    "address": "DALMATINSKA 43",
    "phone": "025436556",
    "mb": "08487871",
    "pib": "100660859",
    "active_funds": "75.950",
    "income": "201.941",
    "neto": "2.804",
    "employees": "12",
    "score": "B"
  },
  {
    "name": "MBS DOO SOMBOR, SUBORIČKA 13",
    "url": "http://www.scoring.rs/Firma/MBS%20DOO%20SOMBOR%2c%20SUBORI%C4%8CKA%2013_45712",
    "county": "Sombor",
    "full_name": "MBS DOO ZA TRGOVINU I USLUGE SOMBOR",
    "location": "SOMBOR",
    "address": "SUBOTIČKA 13",
    "phone": "025436272",
    "mb": "08201960",
    "pib": "100275138",
    "active_funds": "16.748",
    "income": "61.931",
    "neto": "1.805",
    "employees": "12",
    "score": "AA"
  },
  {
    "name": "STIL-IZGRADNJA DOO SOMBOR",
    "url": "http://www.scoring.rs/Firma/STIL-IZGRADNJA%20DOO%20SOMBOR_170813",
    "county": "Sombor",
    "full_name": "DRUŠTVO SA OGRANIČENOM ODGOVORNOŠĆU ZA GRAĐEVINSKO-ZANATSKE RADOVE I TRGOVINU STIL-IZGRADNJA SOMBOR",
    "location": "SOMBOR",
    "address": "BOGOLJUBA JEFTIĆA 22",
    "mb": "20374918",
    "pib": "105435199",
    "active_funds": "7.805",
    "income": "25.637",
    "neto": "1.262",
    "employees": "4",
    "score": "BB"
  },
  {
    "name": "SLOBAL DOO SOMBOR",
    "url": "http://www.scoring.rs/Firma/SLOBAL%20DOO%20SOMBOR_180308",
    "county": "Sombor",
    "full_name": "PREDUZEĆE ZA PROMET I USLUGE SLOBAL DOO SOMBOR",
    "location": "SOMBOR",
    "address": "ISIDORE SEKULIĆ 9",
    "mb": "20479388",
    "pib": "105870566",
    "active_funds": "480",
    "income": "6.639",
    "neto": "91",
    "employees": "4",
    "score": "BBB"
  },
  {
    "name": "DOO BAJCOOP STAPAR",
    "url": "http://www.scoring.rs/Firma/DOO%20BAJCOOP%20STAPAR_51766",
    "county": "Sombor",
    "full_name": "PREDUZEĆE ZA TRGOVINU I USLUGE BAJCOOP STAPAR",
    "location": "STAPAR",
    "address": "VUKA KARADŽIĆA 30",
    "phone": "025827257",
    "mb": "08536686",
    "pib": "100611883",
    "active_funds": "33.412",
    "income": "67.179",
    "neto": "1.477",
    "employees": "5",
    "score": "C"
  },
  {
    "name": "VIP GROUP DOO SOMBOR",
    "url": "http://www.scoring.rs/Firma/VIP%20GROUP%20DOO%20SOMBOR_62302",
    "county": "Sombor",
    "full_name": "VIP GROUP DRUŠTVO SA OGRANIČENOM ODGOVORNOŠĆU ZA PROMET ROBA I USLUGA I PROIZVODNJU SOMBOR",
    "location": "SOMBOR",
    "address": "FILIPA KLJAJIĆA 65",
    "phone": "025448998",
    "mb": "08762619",
    "pib": "100609212",
    "active_funds": "151.984",
    "income": "201.979",
    "neto": "12.892",
    "employees": "19",
    "score": "BB"
  },
  {
    "name": "DOO ŠULEX SOMBORwww.stovariste-sulex.com",
    "url": "http://www.scoring.rs/Firma/DOO%20%C5%A0ULEX%20SOMBOR_60425",
    "county": "Sombor",
    "full_name": "DOO ŠULEX ZA TRGOVINU I USLUGE SOMBOR",
    "location": "SOMBOR",
    "address": "KARAĐORĐEVA 34-36",
    "phone": "025418200",
    "website": "www.stovariste-sulex.com",
    "mb": "08734054",
    "pib": "100273149",
    "active_funds": "287.656",
    "income": "506.883",
    "neto": "21.345",
    "employees": "18",
    "score": "A"
  },
  {
    "name": "INES DOO SOMBORwww.ines.co.rs",
    "url": "http://www.scoring.rs/Firma/INES%20DOO%20SOMBOR_46311",
    "county": "Sombor",
    "full_name": "INES DRUŠTVO ZA INFORMATIČKI INŽENJERING,DRUŠTVO SA OGRANIČENOM ODGOVORNOŠĆU, SOMBOR",
    "location": "SOMBOR",
    "address": "BRANISLAVA NUŠIĆA 13",
    "phone": "025/443-088",
    "website": "www.ines.co.rs",
    "mb": "08223408",
    "pib": "100614521",
    "active_funds": "2.111",
    "income": "6.067",
    "neto": "27",
    "employees": "5",
    "score": "BBB"
  },
  {
    "name": "EKSER DOO SOMBORwww.dals.rs",
    "url": "http://www.scoring.rs/Firma/EKSER%20DOO%20SOMBOR_47721",
    "county": "Sombor",
    "full_name": "EKSER PROIZVODNJA EXPORT-IMPORT I TRGOVINA DOO SOMBOR",
    "location": "SOMBOR",
    "address": "BELOG GOLUBA 10",
    "phone": "025422563",
    "website": "www.dals.rs",
    "mb": "08270759",
    "pib": "100017545",
    "active_funds": "17.176",
    "income": "22.530",
    "neto": "1.623",
    "employees": "4",
    "score": "CC"
  },
  {
    "name": "BUKOVICA D.O.O. ZA PROIZVODNJU,UNUTRAŠNJU I SPOLJNU TRGOVINU,POSREDOVANJE I ŠPEDICIJU, SOMBOR",
    "url": "http://www.scoring.rs/Firma/BUKOVICA%20D.O.O.%20ZA%20PROIZVODNJU%2cUNUTRA%C5%A0NJU%20I%20SPOLJNU%20TRGOVINU%2cPOSREDOVANJE%20I%20%C5%A0PEDICIJU%2c%20SOMBOR_48635",
    "county": "Sombor",
    "full_name": "BUKOVICA D.O.O. ZA PROIZVODNJU,UNUTRAŠNJU I SPOLJNU TRGOVINU,POSREDOVANJE I ŠPEDICIJU, SOMBOR",
    "location": "SOMBOR",
    "address": "SONĆANSKI PUT 59/10",
    "phone": "025442073",
    "mb": "08308918",
    "pib": "100274480",
    "active_funds": "140.305",
    "income": "156.785",
    "neto": "6.777",
    "employees": "3",
    "score": "AA"
  },
  {
    "name": "VECOMwww.vecom.co.rs",
    "url": "http://www.scoring.rs/Firma/VECOM_47909",
    "county": "Sombor",
    "full_name": "PREDUZEĆE ZA PROIZVODNJU TRGOVINU I MARKETING VECOM DOO BEZDAN",
    "location": "Bezdan",
    "address": "KOLUTSKA 5",
    "phone": "025810197",
    "website": "www.vecom.co.rs",
    "mb": "08277761",
    "pib": "100122755",
    "active_funds": "265.932",
    "income": "174.751",
    "neto": "1.435",
    "employees": "19",
    "score": "BBB"
  },
  {
    "name": "DOO SIBA-S SOMBOR",
    "url": "http://www.scoring.rs/Firma/DOO%20SIBA-S%20SOMBOR_50388",
    "county": "Sombor",
    "full_name": "SIBA-S DOO PREDUZEĆE ZA PROMET NA VELIKO I MALO SOMBOR",
    "location": "SOMBOR",
    "address": "SVETOG SAVE 54",
    "phone": "025420478",
    "mb": "08417156",
    "pib": "100614222",
    "active_funds": "38.928",
    "income": "12.736",
    "neto": "1.226",
    "employees": "4",
    "score": "DD"
  },
  {
    "name": "KRO DOO BEZDAN",
    "url": "http://www.scoring.rs/Firma/KRO%20DOO%20BEZDAN_44416",
    "county": "Sombor",
    "full_name": "DRUŠTVO ZA TRGOVINU I USLUGE KRO DOO, BEZDAN",
    "location": "BEZDAN",
    "address": "BRATSTVA JEDINSTVA 21",
    "phone": "025810391",
    "mb": "08159742",
    "pib": "101836853",
    "active_funds": "1.331",
    "income": "4.186",
    "neto": "28",
    "employees": "3",
    "score": "BB"
  },
  {
    "name": "SEVERTRANS SOMBOR ADwww.severtrans.rs",
    "url": "http://www.scoring.rs/Firma/SEVERTRANS%20SOMBOR%20AD_44403",
    "county": "Sombor",
    "full_name": "SEVERTRANS SOMBOR AKCIONARSKO DRUŠTVO ZA PREVOZ PUTNIKA, SOMBOR",
    "location": "SOMBOR",
    "address": "FILIPA KLJAJIĆA BB",
    "phone": "+38125482345",
    "website": "www.severtrans.rs",
    "mb": "08159246",
    "pib": "100016243",
    "active_funds": "476.798",
    "income": "798.901",
    "neto": "26.057",
    "employees": "156",
    "score": "C"
  },
  {
    "name": "WEST-ODOBAŠIĆ I OSTALI OD SOMBOR",
    "url": "http://www.scoring.rs/Firma/WEST-ODOBA%C5%A0I%C4%86%20I%20OSTALI%20OD%20SOMBOR_137183",
    "county": "Sombor",
    "full_name": "WEST-ODOBAŠIĆ I OSTALI OD SOMBOR",
    "location": "SOMBOR",
    "address": "MILOŠA OBILIĆA 22",
    "mb": "20004118",
    "pib": "103704003",
    "active_funds": "21.944",
    "income": "6.190",
    "neto": "45",
    "employees": "6",
    "score": "DD"
  },
  {
    "name": "PANOS",
    "url": "http://www.scoring.rs/Firma/PANOS_47197",
    "county": "Sombor",
    "full_name": "PANOS PROIZVODNO-PROMETNO PREDUZEĆE ZA SPOLJNU I UNUTRAŠNJU TRGOVINU NA VELIKO I MALO DRUŠTVO SA OGRANIČENOM ODGOVORNOŠĆU SOMBOR",
    "location": "Sombor",
    "address": "BOGOLJUBA JEFTIĆA 4",
    "phone": "02533733",
    "mb": "08252475",
    "pib": "100660615",
    "active_funds": "39.252",
    "income": "21.468",
    "neto": "2.305",
    "employees": "3",
    "score": "A"
  },
  {
    "name": "PERGAMONA DOO SOMBOR",
    "url": "http://www.scoring.rs/Firma/PERGAMONA%20DOO%20SOMBOR_58934",
    "county": "Sombor",
    "full_name": "PERGAMONA DOO ZA PROIZVODNJU, PROMET I USLUGE SOMBOR",
    "location": "SOMBOR",
    "address": "MITE POPOVIĆA 9",
    "phone": "025432640",
    "mb": "08709955",
    "pib": "100660980",
    "active_funds": "55.716",
    "income": "69.327",
    "neto": "2.753",
    "employees": "10",
    "score": "B"
  },
  {
    "name": "TUP BAM DOO DOROSLOVO",
    "url": "http://www.scoring.rs/Firma/TUP%20BAM%20DOO%20DOROSLOVO_49628",
    "county": "Sombor",
    "full_name": "TRGOVINSKO USLUŽNO PREDUZEĆE BAM DOO DOROSLOVO",
    "location": "DOROSLOVO",
    "address": "HERCEG JANOŠA 83",
    "phone": "025862395",
    "mb": "08367701",
    "pib": "101841133",
    "active_funds": "1.569",
    "income": "2.840",
    "neto": "9",
    "employees": "3",
    "score": "C"
  },
  {
    "name": "EKRAN DOO SOMBOR",
    "url": "http://www.scoring.rs/Firma/EKRAN%20DOO%20SOMBOR_41251",
    "county": "Sombor",
    "full_name": "DRUŠTVO SA OGRANIČENOM ODGOVORNOŠĆU ZA PRIKAZIVANJE FILMOVA EKRAN, SOMBOR",
    "location": "SOMBOR",
    "address": "KRALJA PETRA I 4",
    "phone": "02522056",
    "mb": "08047154",
    "pib": "100614505",
    "active_funds": "36.008",
    "income": "52.630",
    "neto": "2.378",
    "employees": "9",
    "score": "CC"
  },
  {
    "name": "AGRO PLUS DOO SOMBOR",
    "url": "http://www.scoring.rs/Firma/AGRO%20PLUS%20DOO%20SOMBOR_47897",
    "county": "Sombor",
    "full_name": "POLJOPRIVREDNO-TRGOVINSKO DRUŠTVO AGRO PLUS DOO SOMBOR",
    "location": "SOMBOR",
    "address": "VELJKA MIĆUNOVIĆA 16",
    "phone": "025422935",
    "mb": "08277117",
    "pib": "100017385",
    "active_funds": "983.290",
    "income": "315.790",
    "neto": "101.194",
    "employees": "13",
    "score": "AA"
  },
  {
    "name": "AGRO-ROKOVCI",
    "url": "http://www.scoring.rs/Firma/AGRO-ROKOVCI_137753",
    "county": "Sombor",
    "full_name": "AGRO-ROKOVCI DOO ZA PROIZVODNJU, USLUGE I PROMET, SOMBOR",
    "location": "Sombor",
    "address": "ROKOVAČKI PUT 36",
    "phone": "025432520",
    "mb": "20010380",
    "pib": "103761923",
    "active_funds": "115.280",
    "income": "37.082",
    "neto": "1.526",
    "employees": "3",
    "score": "BB"
  },
  {
    "name": "MTC-SO DOO SOMBORwww.mtcso.com",
    "url": "http://www.scoring.rs/Firma/MTC-SO%20DOO%20SOMBOR_53873",
    "county": "Sombor",
    "full_name": "MTC-SO USLUŽNO TRGOVINSKO DOO, SOMBOR",
    "location": "SOMBOR",
    "address": "ĐURE JAKŠIĆA 3",
    "phone": "025461992",
    "website": "www.mtcso.com",
    "mb": "08614741",
    "pib": "100612030",
    "active_funds": "80.131",
    "income": "211.532",
    "neto": "11.548",
    "employees": "7",
    "score": "AAA"
  },
  {
    "name": "PRIVREDNO DRUŠTVO APPLE WORLD DOO RIĐICAwww.appleworld.rs",
    "url": "http://www.scoring.rs/Firma/PRIVREDNO%20DRU%C5%A0TVO%20APPLE%20WORLD%20DOO%20RI%C4%90ICA_208870",
    "county": "Sombor",
    "full_name": "PRIVREDNO DRUŠTVO APPLE WORLD DOO RIĐICA",
    "location": "RIĐICA",
    "address": "PRVE PLANTAŽE BB",
    "phone": "0113122288",
    "website": "www.appleworld.rs",
    "mb": "20795239",
    "pib": "107403756",
    "active_funds": "2.452.152",
    "income": "396.913",
    "neto": "-126.044",
    "employees": "55",
    "score": "CCC"
  },
  {
    "name": "OMORIKA PLUS DOO KLJAJIĆEVO",
    "url": "http://www.scoring.rs/Firma/OMORIKA%20PLUS%20DOO%20KLJAJI%C4%86EVO_55903",
    "county": "Sombor",
    "full_name": "OMORIKA PLUS DRUŠTVO ZA TRGOVINU NA VELIKO I MALO DOO, KLJAJIĆEVO",
    "location": "KLJAJIĆEVO",
    "address": "RADE KONČARA 37",
    "phone": "025852080",
    "mb": "08659451",
    "pib": "100016616",
    "active_funds": "12.339",
    "income": "44.115",
    "neto": "154",
    "employees": "8",
    "score": "BBB"
  },
  {
    "name": "BETA CORN DOO SOMBORwww.beta-corn.rs",
    "url": "http://www.scoring.rs/Firma/BETA%20CORN%20DOO%20SOMBOR_67986",
    "county": "Sombor",
    "full_name": "BETA CORN DRUŠTVO SA OGRANIČENOM ODGOVORNOŠĆU ZA POLJOPRIVREDNU PROIZVODNJU I USLUGE SOMBOR",
    "location": "SOMBOR",
    "address": "STAPARSKI PUT 8",
    "phone": "025430830",
    "website": "www.beta-corn.rs",
    "mb": "08832463",
    "pib": "103651748",
    "active_funds": "172.421",
    "income": "101.626",
    "neto": "8.733",
    "employees": "9",
    "score": "BB"
  },
  {
    "name": "ALU-MMG DOO KLJAJIĆEVO",
    "url": "http://www.scoring.rs/Firma/ALU-MMG%20DOO%20KLJAJI%C4%86EVO_203061",
    "county": "Sombor",
    "full_name": "ALU-MMG DOO KLJAJIĆEVO",
    "location": "KLJAJIĆEVO",
    "address": "KRALJA PETRA I 45",
    "phone": "025852076",
    "mb": "20729856",
    "pib": "107040748",
    "active_funds": "32.918",
    "income": "51.693",
    "neto": "1.122",
    "employees": "11",
    "score": "C"
  },
  {
    "name": "GRAHOVAC NEBOJŠA I OSTALI OD STAPAR",
    "url": "http://www.scoring.rs/Firma/GRAHOVAC%20NEBOJ%C5%A0A%20I%20OSTALI%20OD%20STAPAR_63983",
    "county": "Sombor",
    "full_name": "PREDUZEĆE ZA PROIZVODNJU I USLUGE GRAHOVAC NEBOJŠA I OSTALI OD STAPAR",
    "location": "STAPAR",
    "address": "SALAŠ 129",
    "mb": "08784396",
    "pib": "102804251",
    "active_funds": "2.303",
    "income": "10.328",
    "neto": "-2.798",
    "employees": "8",
    "score": "EEE"
  },
  {
    "name": "PIRIT DOO KLJAJIĆEVO",
    "url": "http://www.scoring.rs/Firma/PIRIT%20DOO%20KLJAJI%C4%86EVO_66601",
    "county": "Sombor",
    "full_name": "PREDUZEĆE ZA PROIZVODNJU,PROMET I USLUGE PIRIT DRUŠTVO SA OGRANIČENOM ODGOVORNOŠĆU KLJAJIĆEVO",
    "location": "KLJAJIĆEVO",
    "address": "M.OREŠKOVIĆA 87",
    "phone": "025853025",
    "mb": "08816450",
    "pib": "103402922",
    "active_funds": "31.756",
    "income": "37.634",
    "neto": "2.814",
    "employees": "5",
    "score": "BB"
  },
  {
    "name": "VEGA DOO SVETOZAR MILETIĆ",
    "url": "http://www.scoring.rs/Firma/VEGA%20DOO%20SVETOZAR%20MILETI%C4%86_58960",
    "county": "Sombor",
    "full_name": "VEGA DRUŠTVO SA OGRANIČENOM ODGOVORNOŠĆU ZA PROIZVODNJU TRGOVINU I USLUGE SVETOZAR MILETIĆ",
    "location": "SVETOZAR MILETIĆ",
    "address": "VLADIMIRA NAZORA 14",
    "phone": "025841500",
    "mb": "08710384",
    "pib": "100611666",
    "active_funds": "42.314",
    "income": "79.491",
    "neto": "1.317",
    "employees": "4",
    "score": "A"
  },
  {
    "name": "SEVALD COMMERCE DOO SVETOZAR MILETIĆ",
    "url": "http://www.scoring.rs/Firma/SEVALD%20COMMERCE%20DOO%20SVETOZAR%20MILETI%C4%86_52236",
    "county": "Sombor",
    "full_name": "PRIVREDNO DRUŠTVO ZA PROIZVODNJU, TRGOVINU I USLUGE SEVALD COMMERCE DOO SVETOZAR MILETIĆ",
    "location": "SVETOZAR MILETIĆ",
    "address": "DOSITEJA OBRADOVIĆA 30",
    "phone": "02584103",
    "mb": "08565708",
    "pib": "100605467",
    "active_funds": "44.504",
    "income": "194.255",
    "neto": "2.970",
    "employees": "6",
    "score": "BB"
  },
  {
    "name": "MABEL DOO SOMBOR",
    "url": "http://www.scoring.rs/Firma/MABEL%20DOO%20SOMBOR_52097",
    "county": "Sombor",
    "full_name": "MABEL DRUŠTVO SA OGRANIČENOM ODGOVORNOŠĆU ZA PROIZVODNJU I PROMET ROBA I USLUGA EXPORT-IMPORT SOMBOR",
    "location": "SOMBOR",
    "address": "SVETOZARA MILETIĆA 104",
    "phone": "02528103",
    "mb": "08558515",
    "pib": "100612878",
    "active_funds": "6.801",
    "income": "13.219",
    "neto": "366",
    "employees": "3",
    "score": "DD"
  },
  {
    "name": "GOLIĆ",
    "url": "http://www.scoring.rs/Firma/GOLI%C4%86_64991",
    "county": "Sombor",
    "full_name": "GOLIĆ DRUŠTVO SA OGRANIČENOM ODGOVORNOŠĆU ZA PROIZVODNJU, TRGOVINU I USLUGE SOMBOR",
    "location": "Sombor",
    "address": "RADOJA DOMANOVIĆA 3",
    "phone": "02520129",
    "mb": "08797013",
    "pib": "103080125",
    "active_funds": "32.602",
    "income": "64.016",
    "neto": "813",
    "employees": "9",
    "score": "CCC"
  },
  {
    "name": "MOBILITY MGB DOO SOMBOR",
    "url": "http://www.scoring.rs/Firma/MOBILITY%20MGB%20DOO%20SOMBOR_790178",
    "county": "Sombor",
    "full_name": "MOBILITY MGB DOO SOMBOR",
    "location": "SOMBOR",
    "address": "ZLATNE GREDE 3",
    "phone": "+381 63 8021520",
    "mb": "20836377",
    "pib": "107612927",
    "active_funds": "10.583",
    "income": "47.839",
    "neto": "3.938",
    "employees": "59",
    "score": "BBB"
  },
  {
    "name": "MOD AUTO DOO KLJAJIĆEVO",
    "url": "http://www.scoring.rs/Firma/MOD%20AUTO%20DOO%20KLJAJI%C4%86EVO_196293",
    "county": "Sombor",
    "full_name": "MOD AUTO DRUŠTVO SA OGRANIČENOM ODGOVORNOŠĆU KLJAJIĆEVO",
    "location": "KLJAJIĆEVO",
    "address": "MOŠE PIJADE 47",
    "phone": "+381 25 854217",
    "mb": "20655291",
    "pib": "106664359",
    "active_funds": "9.154",
    "income": "7.198",
    "neto": "1.010",
    "employees": "6",
    "score": "C"
  },
  {
    "name": "CALAMARJA DOO SOMBOR",
    "url": "http://www.scoring.rs/Firma/CALAMARJA%20DOO%20SOMBOR_147732",
    "county": "Sombor",
    "full_name": "CALAMARJA DOO ZA PROIZVODNJU TRGOVINU I USLUGE SOMBOR",
    "location": "SOMBOR",
    "address": "JOSIPA PANČIĆA 1",
    "mb": "20120533",
    "pib": "104231151",
    "active_funds": "3.043",
    "income": "13.518",
    "neto": "288",
    "employees": "3",
    "score": "CC"
  },
  {
    "name": "GRUBEX & G DOO SOMBOR",
    "url": "http://www.scoring.rs/Firma/GRUBEX%20-%20G%20DOO%20SOMBOR_62756",
    "county": "Sombor",
    "full_name": "DRUŠTVO ZA TRGOVINU PROIZVODNJU I USLUGE GRUBEX & G DOO, SOMBOR",
    "location": "SOMBOR",
    "address": "FILIPA KLJAJIĆA 15",
    "phone": "025334906",
    "mb": "08768935",
    "pib": "100609751",
    "active_funds": "9.442",
    "income": "26.823",
    "neto": "155",
    "employees": "3",
    "score": "B"
  },
  {
    "name": "SOMBORSKA POLJA ZZ SOMBOR",
    "url": "http://www.scoring.rs/Firma/SOMBORSKA%20POLJA%20ZZ%20SOMBOR_177834",
    "county": "Sombor",
    "full_name": "ZEMLJORADNIČKA ZADRUGA SOMBORSKA POLJA SOMBOR",
    "location": "SOMBOR",
    "address": "FILIPA KLJAJIĆA 35",
    "mb": "20452161",
    "pib": "105760213",
    "active_funds": "58.144",
    "income": "45.509",
    "neto": "-5.349",
    "employees": "3",
    "score": "F"
  },
  {
    "name": "ARSwww.ars.rs",
    "url": "http://www.scoring.rs/Firma/ARS_50708",
    "county": "Sombor",
    "full_name": "ARS PROIZVODNO TRGOVINSKO DRUŠTVO SA OGRANIČENOM ODGOVORNOŠĆU SOMBOR",
    "location": "Sombor",
    "address": "ŠTROSMAJEROVA 18",
    "phone": "025433330",
    "website": "www.ars.rs",
    "mb": "08443424",
    "pib": "100274692",
    "active_funds": "116.020",
    "income": "181.357",
    "neto": "1.380",
    "employees": "52",
    "score": "C"
  },
  {
    "name": "AGRO - FARM DOO SOMBORwww.agrofarm.rs",
    "url": "http://www.scoring.rs/Firma/AGRO%20-%20FARM%20DOO%20SOMBOR_48087",
    "county": "Sombor",
    "full_name": "DRUŠTVO SA OGRANIČENOM ODGOVORNOŠĆU ZA POLJOPRIVREDNU PROIZVODNJU, UNUTRAŠNJU I SPOLJNU TRGOVINU I USLUGE AGRO - FARM SOMBOR",
    "location": "SOMBOR",
    "address": "AMBROZIJA ŠARČEVIĆA 42",
    "phone": "02528896",
    "website": "www.agrofarm.rs",
    "mb": "08283524",
    "pib": "100611998",
    "active_funds": "9.825",
    "income": "29.616",
    "neto": "40",
    "employees": "3",
    "score": "C"
  },
  {
    "name": "PURDA PROMET DOO SVETOZAR MILETIĆ",
    "url": "http://www.scoring.rs/Firma/PURDA%20PROMET%20DOO%20SVETOZAR%20MILETI%C4%86_876272",
    "county": "Sombor",
    "full_name": "DRUŠTVO ZA SPOLJNU I UNUTRAŠNJU TRGOVINU PURDA PROMET DOO SVETOZAR MILETIĆ",
    "location": "SVETOZAR MILETIĆ",
    "address": "SOMBORSKA 7",
    "phone": "025840666",
    "mb": "21008036",
    "pib": "108480146",
    "active_funds": "6.032",
    "income": "18.094",
    "neto": "35",
    "employees": "3",
    "score": "DD"
  },
  {
    "name": "MIGRO DOO SVETOZAR MILETIĆ",
    "url": "http://www.scoring.rs/Firma/MIGRO%20DOO%20SVETOZAR%20MILETI%C4%86_52941",
    "county": "Sombor",
    "full_name": "MIGRO DOO PREDUZEĆE ZA PROIZVODNJU PROMET I USLUGE SVETOZAR MILETIĆ",
    "location": "SVETOZAR MILETIĆ",
    "address": "SOMBORSKA 29",
    "phone": "025841510",
    "mb": "08590591",
    "pib": "100273173",
    "active_funds": "32.588",
    "income": "92.391",
    "neto": "3.507",
    "employees": "4",
    "score": "A"
  },
  {
    "name": "DOO ANAKONDA SECURITY SOMBOR",
    "url": "http://www.scoring.rs/Firma/DOO%20ANAKONDA%20SECURITY%20SOMBOR_62919",
    "county": "Sombor",
    "full_name": "DOO ZA OBEZBEĐENJE IMOVINE I LICA I PROMET ROBA I USLUGA ANAKONDA SECURITY SOMBOR",
    "location": "SOMBOR",
    "address": "ILIJE BIRČANINA 2",
    "phone": "02529340",
    "mb": "08771138",
    "pib": "102000270",
    "active_funds": "33.049",
    "income": "117.156",
    "neto": "2.580",
    "employees": "119",
    "score": "BBB"
  },
  {
    "name": "PP PLODOPROMET DOO STAPAR",
    "url": "http://www.scoring.rs/Firma/PP%20PLODOPROMET%20DOO%20STAPAR_59169",
    "county": "Sombor",
    "full_name": "POLJOPRIVREDNO PREDUZEĆE PLODOPROMET DOO STAPAR",
    "location": "STAPAR",
    "address": "MILOŠA OBILIĆA 3",
    "phone": "025827664",
    "mb": "08714100",
    "pib": "100613153",
    "active_funds": "14.346",
    "income": "63.964",
    "neto": "-12.236",
    "employees": "7",
    "score": "D"
  },
  {
    "name": "ZZ SEKULIĆ-AGRAR ČONOPLJA",
    "url": "http://www.scoring.rs/Firma/ZZ%20SEKULI%C4%86-AGRAR%20%C4%8CONOPLJA_65088",
    "county": "Sombor",
    "full_name": "ZEMLJORADNIČKA ZADRUGA SEKULIĆ-AGRAR ČONOPLJA",
    "location": "ČONOPLJA",
    "address": "DEVET JUGOVIĆA 3",
    "phone": "025845056",
    "mb": "08798281",
    "pib": "103096672",
    "active_funds": "303.640",
    "income": "444.518",
    "neto": "4.575",
    "employees": "14",
    "score": "CCC"
  },
  {
    "name": "DAKAR AUTO DOO SOMBORwww.dakar.kia.rs",
    "url": "http://www.scoring.rs/Firma/DAKAR%20AUTO%20DOO%20SOMBOR_185741",
    "county": "Sombor",
    "full_name": "DAKAR AUTO DRUŠTVO ZA TRGOVINU I SERVIS DOO, SOMBOR",
    "location": "SOMBOR",
    "address": "FILIPA KLJAJIĆA BB",
    "phone": "025434043",
    "website": "www.dakar.kia.rs",
    "mb": "20539151",
    "pib": "106126416",
    "active_funds": "19.425",
    "income": "21.083",
    "neto": "928",
    "employees": "14",
    "score": "C"
  },
  {
    "name": "PC REBRAČA DOO SOMBOR",
    "url": "http://www.scoring.rs/Firma/PC%20REBRA%C4%8CA%20DOO%20SOMBOR_176603",
    "county": "Sombor",
    "full_name": "POSLOVNI CENTAR REBRAČA DOO SOMBOR",
    "location": "SOMBOR",
    "address": "PARISKA 9",
    "phone": "025431820",
    "mb": "20438614",
    "pib": "105690889",
    "active_funds": "1.444.801",
    "income": "56.766",
    "neto": "3.341",
    "employees": "3",
    "score": "E"
  },
  {
    "name": "TMV-PROMET DOO BEZDAN",
    "url": "http://www.scoring.rs/Firma/TMV-PROMET%20DOO%20BEZDAN_149165",
    "county": "Sombor",
    "full_name": "PREDUZEĆE ZA PRERADU DRVETA, TRGOVINU NA VELIKO MALO, USLUGE, EXPORT-IMPORT TMV-PROMET DOO BEZDAN",
    "location": "BEZDAN",
    "address": "ŽELEZNIČKA BB",
    "phone": "025810653",
    "mb": "20136316",
    "pib": "104296240",
    "active_funds": "7.460",
    "income": "10.284",
    "neto": "25",
    "employees": "7",
    "score": "DD"
  },
  {
    "name": "POLYFILMSwww.vecom.co.rs",
    "url": "http://www.scoring.rs/Firma/POLYFILMS_199231",
    "county": "Sombor",
    "full_name": "POLYFILMS DOO, BEZDAN",
    "location": "Bezdan",
    "address": "KOLUTSKA 5",
    "phone": "025810197",
    "website": "www.vecom.co.rs",
    "mb": "20687681",
    "pib": "106825262",
    "active_funds": "16.353",
    "income": "32.302",
    "neto": "-36",
    "employees": "6",
    "score": "BBB"
  },
  {
    "name": "JORGAS DOO SOMBORwww.jorgas.net",
    "url": "http://www.scoring.rs/Firma/JORGAS%20DOO%20SOMBOR_57386",
    "county": "Sombor",
    "full_name": "DRUŠTVO ZA PROJEKTOVANJE I INŽENJERING JORGAS DOO SOMBOR",
    "location": "SOMBOR",
    "address": "VENAC STEPE STEPANOVIĆA 34",
    "phone": "025449450",
    "website": "www.jorgas.net",
    "mb": "08683956",
    "pib": "101837645",
    "active_funds": "1.328",
    "income": "3.546",
    "neto": "130",
    "employees": "3",
    "score": "B"
  },
  {
    "name": "VLANEKS OD BEZDAN",
    "url": "http://www.scoring.rs/Firma/VLANEKS%20OD%20BEZDAN_66656",
    "county": "Sombor",
    "full_name": "PREDUZEĆE ZA PROIZVODNJU TRGOVINU I USLUGE VLANEKS BRAĆA NEMANJA I VLADIMIR ĆUPURDIJA ORTAČKO DRUŠTVO BEZDAN",
    "location": "BEZDAN",
    "address": "OMLADINSKA 45",
    "phone": "0258115230",
    "mb": "08817120",
    "pib": "103417471",
    "active_funds": "7.634",
    "income": "5.581",
    "neto": "119",
    "employees": "3",
    "score": "CCC"
  },
  {
    "name": "GTPU NOVOGRADNJA DOO BEZDANwww.novogradnja.rs",
    "url": "http://www.scoring.rs/Firma/GTPU%20NOVOGRADNJA%20DOO%20BEZDAN_65862",
    "county": "Sombor",
    "full_name": "GRADJEVINSKO, TRGOVINSKO, PROIZVODNO I USLUŽNO PREDUZEĆE NOVOGRADNJA DOO BEZDAN",
    "location": "BEZDAN",
    "address": "NOVA 41-41A",
    "phone": "0251640049",
    "website": "www.novogradnja.rs",
    "mb": "08807752",
    "pib": "103250848",
    "active_funds": "122.112",
    "income": "86.750",
    "neto": "1.737",
    "employees": "23",
    "score": "C"
  },
  {
    "name": "PRO ART-LEPOTA DOO SOMBOR",
    "url": "http://www.scoring.rs/Firma/PRO%20ART-LEPOTA%20DOO%20SOMBOR_171150",
    "county": "Sombor",
    "full_name": "PREDUZEĆE ZA USLUGE I TRGOVINU PRO ART-LEPOTA DOO, SOMBOR",
    "location": "SOMBOR",
    "address": "DUŠANA ĆUBIĆA 6",
    "phone": "025430990",
    "mb": "20378611",
    "pib": "105427318",
    "active_funds": "25.634",
    "income": "45.538",
    "neto": "2.256",
    "employees": "10",
    "score": "CCC"
  },
  {
    "name": "AGRO-NET DOO SOMBOR",
    "url": "http://www.scoring.rs/Firma/AGRO-NET%20DOO%20SOMBOR_61029",
    "county": "Sombor",
    "full_name": "AGRO-NET DOO ZA TRGOVINU I USLUGE U POLJOPRIVREDI SOMBOR",
    "location": "SOMBOR",
    "address": "VENAC STEPE STEPANOVIĆA 30",
    "phone": "02529329",
    "mb": "08743576",
    "pib": "100614931",
    "active_funds": "137.090",
    "income": "220.812",
    "neto": "3.750",
    "employees": "8",
    "score": "C"
  },
  {
    "name": "ZEMLJORADNIČKA ZADRUGA RAVANGRAD, SOMBOR",
    "url": "http://www.scoring.rs/Firma/ZEMLJORADNI%C4%8CKA%20ZADRUGA%20RAVANGRAD%2c%20SOMBOR_55487",
    "county": "Sombor",
    "full_name": "ZEMLJORADNIČKA ZADRUGA RAVANGRAD, SOMBOR",
    "location": "SOMBOR",
    "address": "ILIJE BIRČANINA 55",
    "phone": "025420626",
    "mb": "08652198",
    "pib": "100123170",
    "active_funds": "125.876",
    "income": "176.361",
    "neto": "2.029",
    "employees": "5",
    "score": "A"
  },
  {
    "name": "SAVETI SB DOO SOMBOR",
    "url": "http://www.scoring.rs/Firma/SAVETI%20SB%20DOO%20SOMBOR_162813",
    "county": "Sombor",
    "full_name": "DRUŠTVO SA OGRANIČENOM ODGOVORNOŠĆU ZA USLUGE I KONSALTING SAVETI SB DOO SOMBOR",
    "location": "SOMBOR",
    "address": "BLAGOJEVIĆEVA 15",
    "phone": "025421610",
    "mb": "20286920",
    "pib": "104998142",
    "active_funds": "4.539",
    "income": "7.935",
    "neto": "285",
    "employees": "7",
    "score": "BBB"
  },
  {
    "name": "GRP CENTAR DOO",
    "url": "http://www.scoring.rs/Firma/GRP%20CENTAR%20DOO_60861",
    "county": "Sombor",
    "full_name": "GRP CENTAR DOO SOMBOR",
    "location": "SOMBOR",
    "address": "INDUSTRIJSKA ZONA JUG 3 BB",
    "phone": "0255444964",
    "mb": "08740828",
    "pib": "100614716",
    "active_funds": "79.354",
    "income": "48.609",
    "neto": "2.973",
    "employees": "10",
    "score": "CC"
  },
  {
    "name": "HERCSEMAFOR DOO SOMBORwww.semafor.rs",
    "url": "http://www.scoring.rs/Firma/HERCSEMAFOR%20DOO%20SOMBOR_45666",
    "county": "Sombor",
    "full_name": "DRUŠTVO ZA OBUKU KANDIDATA ZA VOZAČE I VOZAČE MOTORNIH VOZILA HERCSEMAFOR DOO SOMBOR",
    "location": "SOMBOR",
    "address": "KONJOVIĆEVA 1",
    "phone": "02529340",
    "website": "www.semafor.rs",
    "mb": "08200416",
    "pib": "100613338",
    "active_funds": "1.304",
    "income": "1.686",
    "neto": "-2.517",
    "employees": "5",
    "score": "EEE"
  },
  {
    "name": "NAPREDAK EM DOO ČONOPLJA",
    "url": "http://www.scoring.rs/Firma/NAPREDAK%20EM%20DOO%20%C4%8CONOPLJA_45074",
    "county": "Sombor",
    "full_name": "NAPREDAK EM DOO ZA PROIZVODNJU OPEKE ČONOPLJA",
    "location": "ČONOPLJA",
    "address": "STANKA OPSENICE 127",
    "phone": "025844842",
    "mb": "08181403",
    "pib": "100614781",
    "active_funds": "53.686",
    "income": "24.518",
    "neto": "347",
    "employees": "10",
    "score": "D"
  },
  {
    "name": "OP-SA LOGISTIC DOO SOMBOR",
    "url": "http://www.scoring.rs/Firma/OP-SA%20LOGISTIC%20DOO%20SOMBOR_197046",
    "county": "Sombor",
    "full_name": "OP-SA LOGISTIC DRUŠTVO SA OGRANIČENOM ODGOVORNOŠĆU SOMBOR",
    "location": "SOMBOR",
    "address": "BRANKA RADIČEVIĆA 7",
    "mb": "20663626",
    "pib": "106706264",
    "active_funds": "31.355",
    "income": "64.561",
    "neto": "4.430",
    "employees": "6",
    "score": "AA"
  },
  {
    "name": "PP KOLUT AD KOLUT",
    "url": "http://www.scoring.rs/Firma/PP%20KOLUT%20AD%20KOLUT_41748",
    "county": "Sombor",
    "full_name": "POLJOPRIVREDNO PREDUZEĆE KOLUT AKCIONARSKO DRUŠTVO, KOLUT",
    "location": "KOLUT",
    "address": "EKONOMIJA BELI JARAK BB",
    "phone": "025804218",
    "mb": "08064903",
    "pib": "100605741",
    "active_funds": "524.803",
    "income": "32.558",
    "neto": "297",
    "employees": "9",
    "score": "DD"
  },
  {
    "name": "HBA KOMERC DOO BEZDAN",
    "url": "http://www.scoring.rs/Firma/HBA%20KOMERC%20DOO%20BEZDAN_152273",
    "county": "Sombor",
    "full_name": "PREDUZEĆE ZA PROIZVODNJU PROMET I USLUGE HBA KOMERC DOO, BEZDAN",
    "location": "BEZDAN",
    "address": "ŽRTAVA FAŠIZMA 18",
    "mb": "20170638",
    "pib": "104494519",
    "active_funds": "30.241",
    "income": "154.153",
    "neto": "5.498",
    "employees": "9",
    "score": "A"
  },
  {
    "name": "MISAL DOO KLJAJIĆEVOwww.misal.rs",
    "url": "http://www.scoring.rs/Firma/MISAL%20DOO%20KLJAJI%C4%86EVO_50289",
    "county": "Sombor",
    "full_name": "MISAL PREDUZEĆE ZA PROIZVDNJU I PROMET DRUŠTVO SA OGRANIČENOM ODGOVORNOŠĆU, KLJAJIĆEVO",
    "location": "KLJAJIĆEVO",
    "address": "JAGNJEVO BB",
    "phone": "0255150041",
    "website": "www.misal.rs",
    "mb": "08410852",
    "pib": "101841310",
    "active_funds": "110.495",
    "income": "96.340",
    "neto": "8.668",
    "employees": "7",
    "score": "BB"
  },
  {
    "name": "M.J. DOO SOMBORwww.mjsombor.co.rs",
    "url": "http://www.scoring.rs/Firma/M.J.%20DOO%20SOMBOR_48977",
    "county": "Sombor",
    "full_name": "M.J. PREDUZEĆE ZA PROIZVODNJU MONTAŽU I INŽINJERING DRUŠTVO OGRANIČENE ODGOVORNOSTI SOMBOR",
    "location": "SOMBOR",
    "address": "BATINSKA 1",
    "phone": "025433830",
    "website": "www.mjsombor.co.rs",
    "mb": "08326746",
    "pib": "100273719",
    "active_funds": "52.848",
    "income": "37.835",
    "neto": "362",
    "employees": "13",
    "score": "BB"
  },
  {
    "name": "REBRO 18 VET",
    "url": "http://www.scoring.rs/Firma/REBRO%2018%20VET_180489",
    "county": "Sombor",
    "full_name": "VETERINARSKA STANICA REBRO 18 VET DOO SOMBOR",
    "location": "SOMBOR",
    "address": "MATIJE GUPCA 74-76",
    "phone": "025482741",
    "mb": "20481366",
    "pib": "105877387",
    "active_funds": "14.490",
    "income": "25.513",
    "neto": "7.014",
    "employees": "9",
    "score": "A"
  },
  {
    "name": "INTERMINEX DOO SOMBOR",
    "url": "http://www.scoring.rs/Firma/INTERMINEX%20DOO%20SOMBOR_143587",
    "county": "Sombor",
    "full_name": "INTERMINEX DOO MEĐUNARODNA ŠPEDICIJA I TRGOVINA SOMBOR",
    "location": "SOMBOR",
    "address": "VERE GUCUNJE 22",
    "phone": "025426496",
    "mb": "20074728",
    "pib": "104040019",
    "active_funds": "6.875",
    "income": "7.915",
    "neto": "1.583",
    "employees": "3",
    "score": "A"
  },
  {
    "name": "SAGAL DOO SOMBOR",
    "url": "http://www.scoring.rs/Firma/SAGAL%20DOO%20SOMBOR_52777",
    "county": "Sombor",
    "full_name": "SAGAL DRUŠTVO SA OGRANIČENOM ODGOVORNOŠĆU ZA TRGOVINU PROIZVODNJU I USLUGE DOO, SOMBOR",
    "location": "SOMBOR",
    "address": "SVETOG SAVE 26",
    "phone": "025429409",
    "mb": "08585695",
    "pib": "100017432",
    "active_funds": "58.396",
    "income": "60.414",
    "neto": "3.276",
    "employees": "9",
    "score": "BBB"
  },
  {
    "name": "R-TAXI SLUŽBA DOO SOMBOR",
    "url": "http://www.scoring.rs/Firma/R-TAXI%20SLU%C5%BDBA%20DOO%20SOMBOR_159459",
    "county": "Sombor",
    "full_name": "R-TAXI SLUŽBA DOO ZA TAKSI PREVOZ SOMBOR",
    "location": "SOMBOR",
    "address": "DUBROVAČKA 4",
    "mb": "20250003",
    "pib": "104843879",
    "active_funds": "1.746",
    "income": "8.518",
    "neto": "171",
    "employees": "5",
    "score": "A"
  },
  {
    "name": "MLAKE DOO SOMBORwww.mlake.rs",
    "url": "http://www.scoring.rs/Firma/MLAKE%20DOO%20SOMBOR_51471",
    "county": "Sombor",
    "full_name": "MLAKE DOO PRIVREDNO DRUŠTVO ZA PROIZVODNJU PROMET I POSLOVNE USLUGE SOMBOR",
    "location": "SOMBOR",
    "address": "MITE POPOVIĆA 13 B",
    "phone": "025420655",
    "website": "www.mlake.rs",
    "mb": "08509930",
    "pib": "100017570",
    "active_funds": "30.558",
    "income": "21.649",
    "neto": "2.639",
    "employees": "15",
    "score": "A"
  },
  {
    "name": "ZLATNA POLJA DOO ALEKSA ŠANTIĆ",
    "url": "http://www.scoring.rs/Firma/ZLATNA%20POLJA%20DOO%20ALEKSA%20%C5%A0ANTI%C4%86_206084",
    "county": "Sombor",
    "full_name": "PRIVREDNO DRUŠTVO ZA POLJOPRIVREDNU PROIZVODNJU I USLUGE ZLATNA POLJA DOO, ALEKSA ŠANTIĆ",
    "location": "ALEKSA ŠANTIĆ",
    "address": "SOMBORSKI PUT 46",
    "mb": "20763612",
    "pib": "107254547",
    "active_funds": "230.894",
    "income": "738.001",
    "neto": "17.013",
    "employees": "7",
    "score": "B"
  },
  {
    "name": "IRSA EURO LINE BUS DOO SOMBOR",
    "url": "http://www.scoring.rs/Firma/IRSA%20EURO%20LINE%20BUS%20DOO%20SOMBOR_63106",
    "county": "Sombor",
    "full_name": "DOO ZA PREVOZ PUTNIKA I ROBE IRSA EURO LINE BUS, SOMBOR",
    "location": "SOMBOR",
    "address": "ĐURE DANIČIĆA 9 A",
    "phone": "025420272",
    "mb": "08773629",
    "pib": "102252876",
    "active_funds": "24.163",
    "income": "22.064",
    "neto": "285",
    "employees": "4",
    "score": "B"
  },
  {
    "name": "AGRO RAVANGRAD DOO SOMBOR",
    "url": "http://www.scoring.rs/Firma/AGRO%20RAVANGRAD%20DOO%20SOMBOR_158957",
    "county": "Sombor",
    "full_name": "AGRO RAVANGRAD DRUŠTVO SA OGRANIČENOM ODGOVORNOŠĆU ZA PROIZVODNJU, TRGOVINU I USLUGE SOMBOR",
    "location": "SOMBOR",
    "address": "ILIJE BIRČANINA 55",
    "mb": "20244488",
    "pib": "104808714",
    "active_funds": "321.723",
    "income": "906.008",
    "neto": "20.161",
    "employees": "14",
    "score": "BB"
  },
  {
    "name": "STV KA - 54 DOO SOMBOR",
    "url": "http://www.scoring.rs/Firma/STV%20KA%20-%2054%20DOO%20SOMBOR_8348",
    "county": "Sombor",
    "full_name": "PREDUZEĆE ZA RADIO I TELEVIZIJSKE AKTIVNOSTI STV KA-54 DOO SOMBOR",
    "location": "SOMBOR",
    "address": "KRALJA PETRA I 18",
    "phone": "011184417",
    "mb": "06692516",
    "pib": "100058840",
    "active_funds": "6.538",
    "income": "5.601",
    "neto": "84",
    "employees": "3",
    "score": "BB"
  },
  {
    "name": "GORAN & 3M D.O.O.",
    "url": "http://www.scoring.rs/Firma/GORAN%20-%203M%20D.O.O._851096",
    "county": "Sombor",
    "full_name": "GORAN & 3M D.O.O. ZA PROIZVODNJU I PROMET SOMBOR",
    "location": "SOMBOR",
    "address": "OBZIR PAVLOVIĆ 17",
    "phone": "0255881465",
    "mb": "20952962",
    "pib": "108211586",
    "active_funds": "79.085",
    "income": "19.891",
    "neto": "2.928",
    "employees": "4",
    "score": "DDD"
  },
  {
    "name": "TEPKOS DOO ČONOPLJA",
    "url": "http://www.scoring.rs/Firma/TEPKOS%20DOO%20%C4%8CONOPLJA_58079",
    "county": "Sombor",
    "full_name": "DRUŠTVO ZA PROIZVODNJU I PROMET TEPKOS DOO ČONOPLJA",
    "location": "ČONOPLJA",
    "address": "NIKOLE TESLE 16",
    "phone": "025845056",
    "mb": "08695202",
    "pib": "100605395",
    "active_funds": "3.973.028",
    "income": "6.515.608",
    "neto": "124.663",
    "employees": "208",
    "score": "CCC"
  },
  {
    "name": "CERENA-TRADE",
    "url": "http://www.scoring.rs/Firma/CERENA-TRADE_59293",
    "county": "Sombor",
    "full_name": "TRGOVINSKO PREDUZEĆE CERENA-TRADE DOO SOMBOR",
    "location": "SOMBOR",
    "address": "STAPARSKI PUT BB",
    "phone": "02528373",
    "mb": "08716064",
    "pib": "101842780",
    "active_funds": "130.761",
    "income": "148.332",
    "neto": "1.429",
    "employees": "8",
    "score": "AA"
  },
  {
    "name": "YU AGENT PETROLwww.yu-agent.com",
    "url": "http://www.scoring.rs/Firma/YU%20AGENT%20PETROL_844807",
    "county": "Sombor",
    "full_name": "YU AGENT PETROL DRUŠTVO SA OGRANIČENOM ODGOVORNOŠĆU BEZDAN",
    "location": "BEZDAN",
    "address": "ŽRTAVA FAŠIZMA BB",
    "phone": "+38125812040",
    "website": "www.yu-agent.com",
    "mb": "20941588",
    "pib": "108155203",
    "active_funds": "12.049",
    "income": "66.355",
    "neto": "-3.135",
    "employees": "5",
    "score": "DD"
  },
  {
    "name": "AGRICOM COMPANY GROUPwww.agricom.rs",
    "url": "http://www.scoring.rs/Firma/AGRICOM%20COMPANY%20GROUP_201916",
    "county": "Sombor",
    "full_name": "AGRICOM COMPANY GROUP DRUŠTVO SA OGRANIČENOM ODGOVORNOŠĆU SOMBOR",
    "location": "SOMBOR",
    "address": "SONĆANSKI PUT T-17 LOKAL 4",
    "phone": "025442776",
    "website": "www.agricom.rs",
    "mb": "20717246",
    "pib": "106977677",
    "active_funds": "98.427",
    "income": "1.607.891",
    "neto": "10.476",
    "employees": "4",
    "score": "CCC"
  },
  {
    "name": "SINTEX DOO",
    "url": "http://www.scoring.rs/Firma/SINTEX%20DOO_57695",
    "county": "Sombor",
    "full_name": "PREDUZEĆE ZA PROMET NA VELIKO I MALO SINTEX DOO, SOMBOR",
    "location": "SOMBOR",
    "address": "FILIPA KLJAJIĆA 2",
    "phone": "02523833",
    "mb": "08689130",
    "pib": "100660738",
    "active_funds": "128.226",
    "income": "111.027",
    "neto": "3.313",
    "employees": "16",
    "score": "B"
  },
  {
    "name": "M.B.A. DOO BEZDAN",
    "url": "http://www.scoring.rs/Firma/M.B.A.%20DOO%20BEZDAN_55402",
    "county": "Sombor",
    "full_name": "M.B.A. DOO ZA TRGOVINU I USLUGE BEZDAN",
    "location": "BEZDAN",
    "address": "SOMBORSKI PUT 47",
    "phone": "025811093",
    "mb": "08650691",
    "pib": "101836556",
    "active_funds": "7.141",
    "income": "59.588",
    "neto": "924",
    "employees": "9",
    "score": "B"
  },
  {
    "name": "PREDUZEĆE ZA TRGOVINU, MARKETING I PROIZVODNJU ALPAKA DOO, SOMBOR",
    "url": "http://www.scoring.rs/Firma/PREDUZE%C4%86E%20ZA%20TRGOVINU%2c%20MARKETING%20I%20PROIZVODNJU%20ALPAKA%20DOO%2c%20SOMBOR_51567",
    "county": "Sombor",
    "full_name": "PREDUZEĆE ZA TRGOVINU, MARKETING I PROIZVODNJU ALPAKA DOO, SOMBOR",
    "location": "SOMBOR",
    "address": "DALMATINSKA 67",
    "phone": "02523704",
    "mb": "08519609",
    "pib": "100274166",
    "active_funds": "7.659",
    "income": "6.200",
    "neto": "8",
    "employees": "3",
    "score": "D"
  },
  {
    "name": "HRAM DOO SOMBOR",
    "url": "http://www.scoring.rs/Firma/HRAM%20DOO%20SOMBOR_66862",
    "county": "Sombor",
    "full_name": "PREDUZEĆE ZA PROIZVODNJU,TRGOVINU I USLUGE HRAM DOO, SOMBOR",
    "location": "SOMBOR",
    "address": "MITE KALIĆA 9",
    "phone": "02523226",
    "mb": "08819530",
    "pib": "103464923",
    "active_funds": "5.575",
    "income": "7.526",
    "neto": "199",
    "employees": "4",
    "score": "DDD"
  },
  {
    "name": "AUTO ŠKOLA GOLF DOO SOMBOR",
    "url": "http://www.scoring.rs/Firma/AUTO%20%C5%A0KOLA%20GOLF%20DOO%20SOMBOR_63343",
    "county": "Sombor",
    "full_name": "DRUŠTVO ZA OBUKU VOZAČA, TRGOVINU I USLUGE AUTO ŠKOLA GOLF DOO SOMBOR",
    "location": "SOMBOR",
    "address": "MAJORA GAVRILOVIĆA BB",
    "phone": "528625",
    "mb": "08776482",
    "pib": "102576159",
    "active_funds": "1.598",
    "income": "5.776",
    "neto": "14",
    "employees": "8",
    "score": "F"
  },
  {
    "name": "SAVREMENO PAKOVANJEwww.savremenopakovanje.rs",
    "url": "http://www.scoring.rs/Firma/SAVREMENO%20PAKOVANJE_168847",
    "county": "Sombor",
    "full_name": "SAVREMENO PAKOVANJE DOO, BEZDAN",
    "location": "Bezdan",
    "address": "ŽRTAVA FAŠIZMA 20",
    "phone": "025811227",
    "website": "www.savremenopakovanje.rs",
    "mb": "20353295",
    "pib": "105301720",
    "active_funds": "64.583",
    "income": "121.803",
    "neto": "1.080",
    "employees": "33",
    "score": "CC"
  },
  {
    "name": "HEKTAR DOO DOROSLOVO",
    "url": "http://www.scoring.rs/Firma/HEKTAR%20DOO%20DOROSLOVO_52408",
    "county": "Sombor",
    "full_name": "POLJOPRIVREDNO PREDUZEĆE HEKTAR DOO DOROSLOVO",
    "location": "DOROSLOVO",
    "address": "NIKOLE TESLE 125",
    "phone": "025862021",
    "mb": "08574642",
    "pib": "100273972",
    "active_funds": "198.782",
    "income": "482.814",
    "neto": "28.644",
    "employees": "4",
    "score": "BB"
  },
  {
    "name": "COFFEE CENTER DOO SOMBORwww.coffeecenter.rs",
    "url": "http://www.scoring.rs/Firma/COFFEE%20CENTER%20DOO%20SOMBOR_180270",
    "county": "Sombor",
    "full_name": "COFFEE CENTER DOO SOMBOR",
    "location": "SOMBOR",
    "address": "ŠTROSMAJEROVA 8A",
    "phone": "0644870082",
    "website": "www.coffeecenter.rs",
    "mb": "20478969",
    "pib": "105874681",
    "active_funds": "24.058",
    "income": "83.227",
    "neto": "224",
    "employees": "4",
    "score": "C"
  },
  {
    "name": "PRIMERA OD SOMBOR",
    "url": "http://www.scoring.rs/Firma/PRIMERA%20OD%20SOMBOR_61362",
    "county": "Sombor",
    "full_name": "PREDUZEĆE ZA TRGOVINU NA VELIKO I MALO OD KNEŽEVIĆ MARA I DR PRIMERA OD SOMBOR",
    "location": "SOMBOR",
    "address": "JOSIFA PANČIĆA 4",
    "phone": "025450217",
    "mb": "08748829",
    "pib": "100607670",
    "active_funds": "14.066",
    "income": "25.351",
    "neto": "743",
    "employees": "5",
    "score": "BB"
  },
  {
    "name": "VETERINARSKA STANICA VUČICA DOO STANIŠIĆ",
    "url": "http://www.scoring.rs/Firma/VETERINARSKA%20STANICA%20VU%C4%8CICA%20DOO%20STANI%C5%A0I%C4%86_165855",
    "county": "Sombor",
    "full_name": "VETERINARSKA STANICA VUČICA DOO STANIŠIĆ",
    "location": "STANIŠIĆ",
    "address": "VUKA KARADŽIĆA 47",
    "mb": "20320389",
    "pib": "105153321",
    "active_funds": "14.184",
    "income": "18.209",
    "neto": "4.178",
    "employees": "8",
    "score": "A"
  },
  {
    "name": "TEHNOKOP DOO SOMBOR",
    "url": "http://www.scoring.rs/Firma/TEHNOKOP%20DOO%20SOMBOR_48876",
    "county": "Sombor",
    "full_name": "TEHNOKOP DOO PREDUZEĆE ZA TRGOVINU, SOMBOR",
    "location": "SOMBOR",
    "address": "VASE PELAGIĆA 33",
    "phone": "0255483168",
    "mb": "08321426",
    "pib": "100273132",
    "active_funds": "36.004",
    "income": "123.300",
    "neto": "1.092",
    "employees": "7",
    "score": "BBB"
  },
  {
    "name": "MANIKOM DOO STANIŠIĆ",
    "url": "http://www.scoring.rs/Firma/MANIKOM%20DOO%20STANI%C5%A0I%C4%86_61648",
    "county": "Sombor",
    "full_name": "MANIKOM DRUŠTVO SA OGRANIČENOM ODGOVORNOŠĆU ZA PROIZVODNJU TRGOVINU I USLUGE STANIŠIĆ",
    "location": "STANIŠIĆ",
    "address": "ALEKSE ŠANTIĆA 146",
    "phone": "025830756",
    "mb": "08753253",
    "pib": "101840350",
    "active_funds": "9.855",
    "income": "6.382",
    "neto": "130",
    "employees": "3",
    "score": "DDD"
  },
  {
    "name": "K&D AUTOCENTAR DOO SOMBOR",
    "url": "http://www.scoring.rs/Firma/K-D%20AUTOCENTAR%20DOO%20SOMBOR_162584",
    "county": "Sombor",
    "full_name": "DRUŠTVO ZA TRGOVINU I USLUGE K&D AUTOCENTAR DOO SOMBOR",
    "location": "SOMBOR",
    "address": "MATIJE GUPCA 83",
    "phone": "025444885",
    "mb": "20284412",
    "pib": "105037027",
    "active_funds": "6.673",
    "income": "19.692",
    "neto": "86",
    "employees": "6",
    "score": "B"
  },
  {
    "name": "AGROPROTEKT DOO SOMBOR",
    "url": "http://www.scoring.rs/Firma/AGROPROTEKT%20DOO%20SOMBOR_157553",
    "county": "Sombor",
    "full_name": "AGROPROTEKT DOO SOMBOR",
    "location": "SOMBOR",
    "address": "NIKOLE PAŠIĆA 9",
    "phone": "025444905",
    "mb": "20228997",
    "pib": "104771847",
    "active_funds": "4.406",
    "income": "9.115",
    "neto": "700",
    "employees": "3",
    "score": "A"
  },
  {
    "name": "SAVA AGENCIJA DOO SOMBOR",
    "url": "http://www.scoring.rs/Firma/SAVA%20AGENCIJA%20DOO%20SOMBOR_165779",
    "county": "Sombor",
    "full_name": "SAVA AGENCIJA DOO ZA RAČUNOVODSTVENE USLUGE SOMBOR",
    "location": "SOMBOR",
    "address": "21. OKTOBRA 1 A",
    "phone": "02524480",
    "mb": "20319569",
    "pib": "105124448",
    "active_funds": "7.260",
    "income": "6.094",
    "neto": "521",
    "employees": "5",
    "score": "DD"
  },
  {
    "name": "REMECCO DOO SOMBOR",
    "url": "http://www.scoring.rs/Firma/REMECCO%20DOO%20SOMBOR_189914",
    "county": "Sombor",
    "full_name": "PRIVREDNO DRUŠTVO ZA PROIZVODNJU, TRGOVINU I USLUGE REMECCO DOO SOMBOR",
    "location": "SOMBOR",
    "address": "VENAC VOJVODE STEPE STEPANOVIĆA 22",
    "phone": "02524244",
    "mb": "20585048",
    "pib": "106361483",
    "active_funds": "276.726",
    "income": "10.837",
    "neto": "-4.300",
    "employees": "3",
    "score": "BB"
  },
  {
    "name": "DEKOR TPPPPwww.dekorsombor.rs",
    "url": "http://www.scoring.rs/Firma/DEKOR%20TPPPP_45146",
    "county": "Sombor",
    "full_name": "DEKOR TEKSTILNO PROIZVODNO PROMETNO PRIVATNO PREDUZEĆE DOO, SOMBOR",
    "location": "SOMBOR",
    "address": "VALJEVSKA 23",
    "phone": "025415008",
    "website": "www.dekorsombor.rs",
    "mb": "08183520",
    "pib": "101843467",
    "active_funds": "17.095",
    "income": "9.401",
    "neto": "78",
    "employees": "7",
    "score": "BB"
  },
  {
    "name": "VETERINARSKA STANICA ŽIVOTINJSKO CARSTVO DOO SOMBOR",
    "url": "http://www.scoring.rs/Firma/VETERINARSKA%20STANICA%20%C5%BDIVOTINJSKO%20CARSTVO%20DOO%20SOMBOR_194169",
    "county": "Sombor",
    "full_name": "VETERINARSKA STANICA ŽIVOTINJSKO CARSTVO DOO SOMBOR",
    "location": "SOMBOR",
    "address": "MATIJE GUPCA 23",
    "phone": "+381 63 546417",
    "mb": "20631902",
    "pib": "106562872",
    "active_funds": "16.287",
    "income": "22.082",
    "neto": "605",
    "employees": "8",
    "score": "DDD"
  },
  {
    "name": "DUBRAVA D.O.O. SOMBOR",
    "url": "http://www.scoring.rs/Firma/DUBRAVA%20D.O.O.%20SOMBOR_41227",
    "county": "Sombor",
    "full_name": "DUBRAVA D.O.O. SOMBOR",
    "location": "SOMBOR",
    "address": "KRALJA PETRA I 10",
    "phone": "02525190",
    "mb": "08046654",
    "pib": "101840026",
    "active_funds": "19.827",
    "income": "21.751",
    "neto": "4.463",
    "employees": "12",
    "score": "DDD"
  },
  {
    "name": "TRGOVINSKO PREDUZEĆE NA VELIKO I MALO TEKSTIL DOO STANIŠIĆwww.tekstil.rs",
    "url": "http://www.scoring.rs/Firma/TRGOVINSKO%20PREDUZE%C4%86E%20NA%20VELIKO%20I%20MALO%20TEKSTIL%20DOO%20STANI%C5%A0I%C4%86_45116",
    "county": "Sombor",
    "full_name": "TRGOVINSKO PREDUZEĆE NA VELIKO I MALO TEKSTIL DOO STANIŠIĆ",
    "location": "STANIŠIĆ",
    "address": "ALEKSE ŠANTIĆA 154",
    "phone": "02523992",
    "website": "www.tekstil.rs",
    "mb": "08182566",
    "pib": "100660658",
    "active_funds": "15.867",
    "income": "6.293",
    "neto": "93",
    "employees": "3",
    "score": "DDD"
  },
  {
    "name": "YU AGENT DOO BEZDANwww.yu-agent.com",
    "url": "http://www.scoring.rs/Firma/YU%20AGENT%20DOO%20BEZDAN_51867",
    "county": "Sombor",
    "full_name": "PRIVREDNO DRUŠTVO ZA USLUGE U TRGOVINI YU AGENT DOO BEZDAN",
    "location": "BEZDAN",
    "address": "KANALSKA OBALA 60",
    "phone": "+38125812200",
    "website": "www.yu-agent.com",
    "mb": "08544778",
    "pib": "102516725",
    "active_funds": "122.835",
    "income": "148.936",
    "neto": "9.091",
    "employees": "35",
    "score": "CC"
  },
  {
    "name": "EURO-LINE PEKEZwww.euroline.rs",
    "url": "http://www.scoring.rs/Firma/EURO-LINE%20PEKEZ_63356",
    "county": "Sombor",
    "full_name": "EURO-LINE PEKEZ DOO ZA TRGOVINU POSREDOVANJE I USLUGE SOMBOR",
    "location": "Sombor",
    "address": "PARISKA 3",
    "phone": "025421175",
    "website": "www.euroline.rs",
    "mb": "08776636",
    "pib": "102576206",
    "active_funds": "36.500",
    "income": "5.317",
    "neto": "193",
    "employees": "5",
    "score": "DD"
  },
  {
    "name": "LIBOS DOO SOMBOR",
    "url": "http://www.scoring.rs/Firma/LIBOS%20DOO%20SOMBOR_51042",
    "county": "Sombor",
    "full_name": "PRIVREDNO DRUŠTVO LIBOS DRUŠTVO SA OGRANIČENOM ODGOVORNOŠĆU, ZA TRGOVINU NA VELIKO I MALO, PROIZVODNJU, SPOLJNU I UNUTRAŠNJU TRGOVINU SOMBOR",
    "location": "SOMBOR",
    "address": "JORGOVANSKA 33",
    "phone": "02524213",
    "mb": "08472734",
    "pib": "100660699",
    "active_funds": "27.645",
    "income": "35.567",
    "neto": "4.487",
    "employees": "11",
    "score": "BB"
  },
  {
    "name": "BRIKET PROMET",
    "url": "http://www.scoring.rs/Firma/BRIKET%20PROMET_63046",
    "county": "Sombor",
    "full_name": "DRUŠTVO SA OGRANIČENOM ODGOVORNOŠĆU ZA TRGOVINU I USLUGE BRIKET PROMET DOO SOMBOR",
    "location": "Sombor",
    "address": "GAKOVAČKI PUT BB",
    "phone": "025451548",
    "mb": "08772789",
    "pib": "102071955",
    "active_funds": "60.214",
    "income": "145.091",
    "neto": "3.438",
    "employees": "5",
    "score": "BBB"
  },
  {
    "name": "IVANOVIĆ-IMPEKS DOO SOMBORwww.ivanovicimpex.rs",
    "url": "http://www.scoring.rs/Firma/IVANOVI%C4%86-IMPEKS%20DOO%20SOMBOR_149216",
    "county": "Sombor",
    "full_name": "IVANOVIĆ-IMPEKS DOO SOMBOR",
    "location": "SOMBOR",
    "address": "MILOŠA OBILIĆA 28",
    "website": "www.ivanovicimpex.rs",
    "mb": "20136880",
    "pib": "104374955",
    "active_funds": "124.543",
    "income": "125.766",
    "neto": "4.460",
    "employees": "14",
    "score": "B"
  },
  {
    "name": "MONTANA STAR DOO SOMBOR",
    "url": "http://www.scoring.rs/Firma/MONTANA%20STAR%20DOO%20SOMBOR_162162",
    "county": "Sombor",
    "full_name": "MONTANA STAR DOO ZA TRGOVINU I USLUGE SOMBOR",
    "location": "SOMBOR",
    "address": "KRALJA PETRA I 28",
    "phone": "025421350",
    "mb": "20279761",
    "pib": "104993824",
    "active_funds": "38.764",
    "income": "59.335",
    "neto": "524",
    "employees": "9",
    "score": "BB"
  },
  {
    "name": "HOBI CENTAR DOO",
    "url": "http://www.scoring.rs/Firma/HOBI%20CENTAR%20DOO_898549",
    "county": "Sombor",
    "full_name": "HOBI CENTAR DRUŠTVO SA OGRANIČENOM ODGOVORNOŠĆU SOMBOR",
    "location": "SOMBOR",
    "address": "ERNESTA KIŠA 6",
    "phone": "+381 25 423457",
    "mb": "21056685",
    "pib": "108731572",
    "active_funds": "5.367",
    "income": "10.219",
    "neto": "99",
    "employees": "6",
    "score": "CC"
  },
  {
    "name": "COMMERCE RODIĆ NENAD I OSTALI OD SOMBOR",
    "url": "http://www.scoring.rs/Firma/COMMERCE%20RODI%C4%86%20NENAD%20I%20OSTALI%20OD%20SOMBOR_61993",
    "county": "Sombor",
    "full_name": "PREDUZEĆE ZA TRGOVINU I USLUGE COMMERCE RODIĆ NENAD I OSTALI OD SOMBOR",
    "location": "SOMBOR",
    "address": "MAKSIMA GORKOG 44",
    "phone": "02534392",
    "mb": "08758468",
    "pib": "100614669",
    "active_funds": "11.471",
    "income": "25.251",
    "neto": "-156",
    "employees": "3",
    "score": "CC"
  },
  {
    "name": "TERBOINOX DOO SOMBORwww.terboinox.com",
    "url": "http://www.scoring.rs/Firma/TERBOINOX%20DOO%20SOMBOR_199893",
    "county": "Sombor",
    "full_name": "TERBOINOX DRUŠTVO SA OGRANIČENOM ODGOVORNOŠĆU ZA TRGOVINU, PROIZVODNJU I USLUGE SOMBOR",
    "location": "SOMBOR",
    "address": "JUG-3 OBILAZNICA NOVA-6 4",
    "phone": "025421180",
    "website": "www.terboinox.com",
    "mb": "20694980",
    "pib": "106863231",
    "active_funds": "382.684",
    "income": "646.416",
    "neto": "18.317",
    "employees": "15",
    "score": "B"
  },
  {
    "name": "COMEX PREDUZEĆE ZA PROIZVODNJU, TRGOVINU I USLUGE DOO, SOMBORwww.comex.rs",
    "url": "http://www.scoring.rs/Firma/COMEX%20PREDUZE%C4%86E%20ZA%20PROIZVODNJU%2c%20TRGOVINU%20I%20USLUGE%20DOO%2c%20SOMBOR_51578",
    "county": "Sombor",
    "full_name": "COMEX PREDUZEĆE ZA PROIZVODNJU, TRGOVINU I USLUGE DOO, SOMBOR",
    "location": "SOMBOR",
    "address": "XII VOJVOĐANSKE UDARNE BRIGADE 17",
    "phone": "025429111",
    "website": "www.comex.rs",
    "mb": "08520399",
    "pib": "100122511",
    "active_funds": "3.899",
    "income": "9.393",
    "neto": "35",
    "employees": "4",
    "score": "CCC"
  },
  {
    "name": "SAMOSTALNO TRGOVINSKO PREDUZEĆE NA VELIKO I MALO RIĐIČKI MAGAZIN DOO, RIĐICA",
    "url": "http://www.scoring.rs/Firma/SAMOSTALNO%20TRGOVINSKO%20PREDUZE%C4%86E%20NA%20VELIKO%20I%20MALO%20RI%C4%90I%C4%8CKI%20MAGAZIN%20DOO%2c%20RI%C4%90ICA_46797",
    "county": "Sombor",
    "full_name": "SAMOSTALNO TRGOVINSKO PREDUZEĆE NA VELIKO I MALO RIĐIČKI MAGAZIN DOO, RIĐICA",
    "location": "RIĐICA",
    "address": "VUKA KARADŽIĆA 23",
    "phone": "02585677",
    "mb": "08239657",
    "pib": "100606134",
    "active_funds": "36.893",
    "income": "12.937",
    "neto": "-813",
    "employees": "4",
    "score": "FF"
  },
  {
    "name": "BOŠKOVIĆ AGRAR DOO ALEKSA ŠANTIĆ",
    "url": "http://www.scoring.rs/Firma/BO%C5%A0KOVI%C4%86%20AGRAR%20DOO%20ALEKSA%20%C5%A0ANTI%C4%86_170498",
    "county": "Sombor",
    "full_name": "DRUŠTVO ZA PROIZVODNJU TRGOVINU I USLUGE BOŠKOVIĆ AGRAR DOO ALEKSA ŠANTIĆ",
    "location": "ALEKSA ŠANTIĆ",
    "address": "SOMBORSKI PUT 46",
    "mb": "20371463",
    "pib": "105388974",
    "active_funds": "885.074",
    "income": "633.818",
    "neto": "41.105",
    "employees": "46",
    "score": "CCC"
  },
  {
    "name": "MIR-B&S DOO SOMBOR",
    "url": "http://www.scoring.rs/Firma/MIR-B-S%20DOO%20SOMBOR_67261",
    "county": "Sombor",
    "full_name": "PREDUZEĆE ZA PROIZVODNJU,TRGOVINU,USLUGE I ŠPEDICIJU MIR-B&S DOO SOMBOR",
    "location": "SOMBOR",
    "address": "VOJVOĐANSKA 49",
    "mb": "08824207",
    "pib": "103573489",
    "active_funds": "5.967",
    "income": "8.341",
    "neto": "164",
    "employees": "3",
    "score": "CC"
  },
  {
    "name": "ZZ ŽIVINOSTOK SOMBOR",
    "url": "http://www.scoring.rs/Firma/ZZ%20%C5%BDIVINOSTOK%20SOMBOR_59960",
    "county": "Sombor",
    "full_name": "ZEMLJORADNIČKA ZADRUGA ŽIVINOSTOK SOMBOR",
    "location": "SOMBOR",
    "address": "KLJAJIĆEVVAČKI PUT 7",
    "phone": "025425065",
    "mb": "08726574",
    "pib": "100660490",
    "active_funds": "18.652",
    "income": "24.325",
    "neto": "1.637",
    "employees": "4",
    "score": "B"
  },
  {
    "name": "BOJA DOOwww.boja.co.rs",
    "url": "http://www.scoring.rs/Firma/BOJA%20DOO_41229",
    "county": "Sombor",
    "full_name": "BOJA DOO ZA IZRADU SAOBRAĆAJNE SIGNALIZACIJE SOMBOR",
    "location": "SOMBOR",
    "address": "ARSENIJA ČARNOJEVIĆA 16",
    "phone": "+38125 416194",
    "website": "www.boja.co.rs",
    "mb": "08046689",
    "pib": "100016260",
    "active_funds": "946.187",
    "income": "835.189",
    "neto": "60.620",
    "employees": "88",
    "score": "B"
  },
  {
    "name": "DOO GRUTINI PRESS SOMBORwww.grutinipres.rs",
    "url": "http://www.scoring.rs/Firma/DOO%20GRUTINI%20PRESS%20SOMBOR_55513",
    "county": "Sombor",
    "full_name": "GRUTINI PRESS MARKETING I DISTRIBUCIJA, DRUŠTVO SA OGRANIČENOM ODGOVORNOŠĆU SOMBOR",
    "location": "SOMBOR",
    "address": "SONĆANSKI PUT 2",
    "website": "www.grutinipres.rs",
    "mb": "08652643",
    "pib": "100272880",
    "active_funds": "49.190",
    "income": "465.127",
    "neto": "5.172",
    "employees": "69",
    "score": "CC"
  },
  {
    "name": "VIA GUSTO DOO",
    "url": "http://www.scoring.rs/Firma/VIA%20GUSTO%20DOO_820013",
    "county": "Sombor",
    "full_name": "VIA GUSTO DOO SOMBOR",
    "location": "SOMBOR",
    "address": "SONĆANSKI PUT 2",
    "phone": "+381 25 22788",
    "mb": "20891106",
    "pib": "107890748",
    "active_funds": "12.763",
    "income": "52.646",
    "neto": "7.965",
    "employees": "15",
    "score": "B"
  },
  {
    "name": "AGRO-CAR DOO STANIŠIĆ",
    "url": "http://www.scoring.rs/Firma/AGRO-CAR%20DOO%20STANI%C5%A0I%C4%86_156371",
    "county": "Sombor",
    "full_name": "AGRO-CAR DOO STANIŠIĆ",
    "location": "STANIŠIĆ",
    "address": "OSLOBOĐENJA 93",
    "phone": "025831470",
    "mb": "20215925",
    "pib": "104692462",
    "active_funds": "121.723",
    "income": "790.497",
    "neto": "10.986",
    "employees": "11",
    "score": "CC"
  },
  {
    "name": "AE PROJEKT CENTARwww.ae.rs",
    "url": "http://www.scoring.rs/Firma/AE%20PROJEKT%20CENTAR_65199",
    "county": "Sombor",
    "full_name": "AE PROJEKT CENTAR DRUŠTVO SA OGRANIČENOM ODGOVORNOŠĆU ZA PROJEKTOVANJE, NADZOR, INŽINJERING I USLUGE, SOMBOR",
    "location": "Sombor",
    "address": "GRUJE DEDIĆA 23, STAN 19",
    "phone": "025443566",
    "website": "www.ae.rs",
    "mb": "08799679",
    "pib": "103123143",
    "active_funds": "67.955",
    "income": "19.955",
    "neto": "2.600",
    "employees": "4",
    "score": "CC"
  },
  {
    "name": "CRVENI SIGNAL-025 DOO SOMBOR",
    "url": "http://www.scoring.rs/Firma/CRVENI%20SIGNAL-025%20DOO%20SOMBOR_939655",
    "county": "Sombor",
    "full_name": "CRVENI SIGNAL-025 DOO ZA TURIZAM OBUKU VOZAČA I TEHNIČKI PREGLED VOZILA SOMBOR",
    "location": "SOMBOR",
    "address": "NIKE MAKSIMOVIĆA 31",
    "phone": "+381 63 1153930",
    "mb": "21133892",
    "pib": "109154798",
    "active_funds": "753",
    "income": "3.383",
    "neto": "48",
    "employees": "4",
    "score": "CCC"
  },
  {
    "name": "TRGOVINSKA RADNJA IZBOR BORIS STJELJA PR, RIĐICA",
    "url": "http://www.scoring.rs/Firma/TRGOVINSKA%20RADNJA%20IZBOR%20BORIS%20STJELJA%20PR%2c%20RI%C4%90ICA_705044",
    "county": "Sombor",
    "full_name": "TRGOVINSKA RADNJA IZBOR BORIS STJELJA PR, RIĐICA",
    "location": "RIĐICA",
    "address": "NOVO NASELJE BB",
    "phone": "025856677",
    "mb": "61890467",
    "pib": "105886134",
    "active_funds": "18.912",
    "income": "47.037",
    "neto": "1.035",
    "employees": "5",
    "score": "CC"
  },
  {
    "name": "TREN TRGOVINSKA RADNJA MEŠOVITE ROBE I STOČNE HRANE VORKAPIĆ DRAGANA PREDUZETNIK KLJAJIĆEVO",
    "url": "http://www.scoring.rs/Firma/TREN%20TRGOVINSKA%20RADNJA%20ME%C5%A0OVITE%20ROBE%20I%20STO%C4%8CNE%20HRANE%20VORKAPI%C4%86%20DRAGANA%20PREDUZETNIK%20KLJAJI%C4%86EVO_414323",
    "county": "Sombor",
    "full_name": "TREN TRGOVINSKA RADNJA MEŠOVITE ROBE I STOČNE HRANE VORKAPIĆ DRAGANA PREDUZETNIK KLJAJIĆEVO",
    "location": "KLJAJIĆEVO",
    "address": "VOJVOĐANSKA 2",
    "phone": "025852550",
    "mb": "55586497",
    "pib": "102000374",
    "active_funds": "3.826",
    "income": "15.735",
    "neto": "110",
    "employees": "4",
    "score": "DD"
  },
  {
    "name": "POLO MAJICA",
    "url": "http://www.scoring.rs/Firma/POLO%20MAJICA_699800",
    "county": "Sombor",
    "full_name": "JELKA MILIĆ PR, SZR POLO MAJICA SOMBOR",
    "location": "SOMBOR",
    "address": "SVETOZARA MILETIĆA 100",
    "phone": "0655211433",
    "mb": "61832793",
    "pib": "101707092",
    "active_funds": "900",
    "income": "3.332",
    "neto": "-396",
    "employees": "5",
    "score": "DD"
  },
  {
    "name": "DALIBOR KREKIĆ PR AUTOPRAONICA I VULKANIZER KREKIĆ SOMBOR",
    "url": "http://www.scoring.rs/Firma/DALIBOR%20KREKI%C4%86%20PR%20AUTOPRAONICA%20I%20VULKANIZER%20KREKI%C4%86%20SOMBOR_571193",
    "county": "Sombor",
    "full_name": "DALIBOR KREKIĆ PR AUTOPRAONICA I VULKANIZER KREKIĆ SOMBOR",
    "location": "SOMBOR",
    "address": "VUKICE MITROVIĆ BB",
    "phone": "0631098778",
    "mb": "60417644",
    "pib": "104687435",
    "active_funds": "8.612",
    "income": "",
    "neto": "",
    "employees": "4",
    "score": "BBB"
  },
  {
    "name": "VIKTOR SABO PR PROIZVODNJA METALNIH VRATA I PROZORA ALMAX PLUS SOMBORwww.almax.rs",
    "url": "http://www.scoring.rs/Firma/VIKTOR%20SABO%20PR%20PROIZVODNJA%20METALNIH%20VRATA%20I%20PROZORA%20ALMAX%20PLUS%20SOMBOR_889441",
    "county": "Sombor",
    "full_name": "VIKTOR SABO PR PROIZVODNJA METALNIH VRATA I PROZORA ALMAX PLUS SOMBOR",
    "location": "SOMBOR",
    "address": "CENTRALA BB",
    "phone": "025430680",
    "website": "www.almax.rs",
    "mb": "63589748",
    "pib": "108634051",
    "active_funds": "8.295",
    "income": "13.778",
    "neto": "189",
    "employees": "7",
    "score": "C"
  },
  {
    "name": "BILJANA VEZMAR PREDUZETNIK TRGOVINSKO KOMISIONA I ZANATSKA RADNJA DASEAN SOMBOR",
    "url": "http://www.scoring.rs/Firma/BILJANA%20VEZMAR%20PREDUZETNIK%20TRGOVINSKO%20KOMISIONA%20I%20ZANATSKA%20RADNJA%20DASEAN%20SOMBOR_231161",
    "county": "Sombor",
    "full_name": "BILJANA VEZMAR PREDUZETNIK TRGOVINSKO KOMISIONA I ZANATSKA RADNJA DASEAN SOMBOR",
    "location": "SOMBOR",
    "address": "ČITAONIČKA 2",
    "phone": "02524872",
    "mb": "50372545",
    "pib": "101839253",
    "active_funds": "17.657",
    "income": "27.866",
    "neto": "651",
    "employees": "8",
    "score": "BB"
  },
  {
    "name": "MEDLAB MEDICINSKA BIOHEMIJSKA LABORATORIJA IVANKA MOJIĆ PREDUZETNIK SOMBORwww.medlab.rs",
    "url": "http://www.scoring.rs/Firma/MEDLAB%20MEDICINSKA%20BIOHEMIJSKA%20LABORATORIJA%20IVANKA%20MOJI%C4%86%20PREDUZETNIK%20SOMBOR_496666",
    "county": "Sombor",
    "full_name": "MEDLAB MEDICINSKA BIOHEMIJSKA LABORATORIJA IVANKA MOJIĆ PREDUZETNIK SOMBOR",
    "location": "SOMBOR",
    "address": "NIKOLE VUKIĆEVIĆA 1",
    "phone": "+38121/619924",
    "website": "www.medlab.rs",
    "mb": "56735011",
    "pib": "103614097",
    "active_funds": "1.713",
    "income": "14.313",
    "neto": "718",
    "employees": "5",
    "score": "BBB"
  },
  {
    "name": "TRGOVINSKO-KOMISIONA I ZANATSKA RADNJA TEN MARKO TOMIĆ PREDUZETNIK SOMBOR",
    "url": "http://www.scoring.rs/Firma/TRGOVINSKO-KOMISIONA%20I%20ZANATSKA%20RADNJA%20TEN%20MARKO%20TOMI%C4%86%20PREDUZETNIK%20SOMBOR_496686",
    "county": "Sombor",
    "full_name": "TRGOVINSKO-KOMISIONA I ZANATSKA RADNJA TEN MARKO TOMIĆ PREDUZETNIK SOMBOR",
    "location": "SOMBOR",
    "address": "VENAC ŽIVOJINA MIŠIĆA 33",
    "phone": "025421932",
    "mb": "56735291",
    "pib": "103646859",
    "active_funds": "9.342",
    "income": "31.730",
    "neto": "533",
    "employees": "5",
    "score": "B"
  },
  {
    "name": "ARHITEKTONSKI ATELJE ZA PROJEKTOVANJEINŽENJERING I PROIZVODNJU NAMEŠTAJA TRGOVINU NA VELIKO I MALO DOMUS OLGICA MIJIĆ PR SOMBORwww.domusarh.com",
    "url": "http://www.scoring.rs/Firma/ARHITEKTONSKI%20ATELJE%20ZA%20PROJEKTOVANJEIN%C5%BDENJERING%20I%20PROIZVODNJU%20NAME%C5%A0TAJA%20TRGOVINU%20NA%20VELIKO%20I%20MALO%20D_231418",
    "county": "Sombor",
    "full_name": "ARHITEKTONSKI ATELJE ZA PROJEKTOVANJEINŽENJERING I PROIZVODNJU NAMEŠTAJA TRGOVINU NA VELIKO I MALO DOMUS OLGICA MIJIĆ PR SOMBOR",
    "location": "SOMBOR",
    "address": "AVRAMA MRAZOVIĆA 13",
    "phone": "025427843",
    "website": "www.domusarh.com",
    "mb": "50382168",
    "pib": "100016712",
    "active_funds": "6.388",
    "income": "25.850",
    "neto": "861",
    "employees": "9",
    "score": "CCC"
  },
  {
    "name": "VUJAKOVIĆ SEMIZ JASMINKA PREDUZETNIK, TRGOVINSKO-USLUŽNA RADNJA I MENJAČNICA FESTINA LENTE SOMBOR",
    "url": "http://www.scoring.rs/Firma/VUJAKOVI%C4%86%20SEMIZ%20JASMINKA%20PREDUZETNIK%2c%20TRGOVINSKO-USLU%C5%BDNA%20RADNJA%20I%20MENJA%C4%8CNICA%20FESTINA%20LENTE%20SOMBOR_231419",
    "county": "Sombor",
    "full_name": "VUJAKOVIĆ SEMIZ JASMINKA PREDUZETNIK, TRGOVINSKO-USLUŽNA RADNJA I MENJAČNICA FESTINA LENTE SOMBOR",
    "location": "SOMBOR",
    "address": "KRALJA PETRA I 19",
    "phone": "063511170",
    "mb": "50382249",
    "pib": "100272943",
    "active_funds": "7.595",
    "income": "11.374",
    "neto": "38",
    "employees": "7",
    "score": "DDD"
  },
  {
    "name": "PRŽIONICA KAFE,TRGOVINSKA RADNJA NA MALO MEŠOVITOM ROBOM I PRERADA MESA DANIMES RALIĆ SINIŠA PREDUZETNIK, KLJAJIĆEVO",
    "url": "http://www.scoring.rs/Firma/PR%C5%BDIONICA%20KAFE%2cTRGOVINSKA%20RADNJA%20NA%20MALO%20ME%C5%A0OVITOM%20ROBOM%20I%20PRERADA%20MESA%20DANIMES%20RALI%C4%86%20SINI%C5%A0A%20PREDUZE_231580",
    "county": "Sombor",
    "full_name": "PRŽIONICA KAFE,TRGOVINSKA RADNJA NA MALO MEŠOVITOM ROBOM I PRERADA MESA DANIMES RALIĆ SINIŠA PREDUZETNIK, KLJAJIĆEVO",
    "location": "KLJAJIĆEVO",
    "address": "MOŠE PIJADE 77",
    "phone": "025852260",
    "mb": "50389626",
    "pib": "101837975",
    "active_funds": "10.024",
    "income": "28.287",
    "neto": "301",
    "employees": "12",
    "score": "C"
  },
  {
    "name": "EMONA STAN DOO SOMBOR",
    "url": "http://www.scoring.rs/Firma/EMONA%20STAN%20DOO%20SOMBOR_153313",
    "county": "Sombor",
    "full_name": "PREDUZEĆE ZA UPRAVLJANJE NEKRETNINAMA, PRUŽANJE GRAĐEVINSKIH I OSTALIH USLUGA EMONA STAN DOO SOMBOR",
    "location": "SOMBOR",
    "address": "STAPARSKI PUT S-11",
    "mb": "20182130",
    "pib": "104522647",
    "active_funds": "2.090",
    "income": "7.853",
    "neto": "-443",
    "employees": "6",
    "score": "B"
  },
  {
    "name": "BREND MEDIAwww.brendmedia.net",
    "url": "http://www.scoring.rs/Firma/BREND%20MEDIA_835109",
    "county": "Sombor",
    "full_name": "BREND MEDIA DOO SOMBOR",
    "location": "SOMBOR",
    "address": "DR. RUŽICE RIP 7",
    "phone": "025434034",
    "website": "www.brendmedia.net",
    "mb": "20922486",
    "pib": "108049775",
    "active_funds": "21.299",
    "income": "27.256",
    "neto": "1.124",
    "employees": "11",
    "score": "DDD"
  },
  {
    "name": "AGENCIJA ZA TRGOVINU I USLUGE INFO CENTAR MOMČILO MILIČEVIĆ PR SOMBORwww.infocentar.rs",
    "url": "http://www.scoring.rs/Firma/AGENCIJA%20ZA%20TRGOVINU%20I%20USLUGE%20INFO%20CENTAR%20MOM%C4%8CILO%20MILI%C4%8CEVI%C4%86%20PR%20SOMBOR_342687",
    "county": "Sombor",
    "full_name": "AGENCIJA ZA TRGOVINU I USLUGE INFO CENTAR MOMČILO MILIČEVIĆ PR SOMBOR",
    "location": "SOMBOR",
    "address": "ČITAONIČKA 3",
    "phone": "0255150201",
    "website": "www.infocentar.rs",
    "mb": "54164742",
    "pib": "101840704",
    "active_funds": "22.051",
    "income": "53.903",
    "neto": "3.934",
    "employees": "10",
    "score": "BBB"
  },
  {
    "name": "METALELEKTRO DOO SOMBORwww.metalelektro.rs",
    "url": "http://www.scoring.rs/Firma/METALELEKTRO%20DOO%20SOMBOR_47125",
    "county": "Sombor",
    "full_name": "METALELEKTRO PREDUZEĆE ZA TRGOVINU NA VELIKO I MALO DOO SOMBOR",
    "location": "SOMBOR",
    "address": "BOŽIDARA ADŽIJE 17",
    "phone": "025419249",
    "website": "www.metalelektro.rs",
    "mb": "08250146",
    "pib": "101838566",
    "active_funds": "24.733",
    "income": "53.718",
    "neto": "1.157",
    "employees": "5",
    "score": "BB"
  },
  {
    "name": "PANDA TRGOVINSKO-KOMISIONA I UGOSTITELJSKA RADNJA MILIČEVIĆ MIROSLAV PREDUZETNIK SOMBOR",
    "url": "http://www.scoring.rs/Firma/PANDA%20TRGOVINSKO-KOMISIONA%20I%20UGOSTITELJSKA%20RADNJA%20MILI%C4%8CEVI%C4%86%20MIROSLAV%20PREDUZETNIK%20SOMBOR_276163",
    "county": "Sombor",
    "full_name": "PANDA TRGOVINSKO-KOMISIONA I UGOSTITELJSKA RADNJA MILIČEVIĆ MIROSLAV PREDUZETNIK SOMBOR",
    "location": "SOMBOR",
    "address": "KRALJA PETRA I 2",
    "phone": "+381 (0)25 29070",
    "mb": "51622553",
    "pib": "100272935",
    "active_funds": "1.504",
    "income": "5.284",
    "neto": "-4",
    "employees": "3",
    "score": "DD"
  },
  {
    "name": "TRGOVINSKO USLUŽNA RADNJA OLJA MIRJANA VIDOVIĆ PR KLJAJIĆEVO",
    "url": "http://www.scoring.rs/Firma/TRGOVINSKO%20USLU%C5%BDNA%20RADNJA%20OLJA%20MIRJANA%20VIDOVI%C4%86%20PR%20KLJAJI%C4%86EVO_276170",
    "county": "Sombor",
    "full_name": "TRGOVINSKO USLUŽNA RADNJA OLJA MIRJANA VIDOVIĆ PR KLJAJIĆEVO",
    "location": "KLJAJIĆEVO",
    "address": "MARKA OREŠKOVIĆA 70",
    "phone": "025853597",
    "mb": "51622944",
    "pib": "100272566",
    "active_funds": "12.043",
    "income": "85.268",
    "neto": "1.975",
    "employees": "7",
    "score": "BBB"
  },
  {
    "name": "MARKO KAJTAZI PR, PEKARSKA RADNJA TRI BRATA, SOMBOR",
    "url": "http://www.scoring.rs/Firma/MARKO%20KAJTAZI%20PR%2c%20PEKARSKA%20RADNJA%20TRI%20BRATA%2c%20SOMBOR_348388",
    "county": "Sombor",
    "full_name": "MARKO KAJTAZI PR, PEKARSKA RADNJA TRI BRATA, SOMBOR",
    "location": "SOMBOR",
    "address": "DVANAESTE VOJVOĐANSKE UDARNE BRIGADE 109",
    "phone": "025420684",
    "mb": "54311788",
    "pib": "100613969",
    "active_funds": "57.629",
    "income": "113.429",
    "neto": "834",
    "employees": "61",
    "score": "CC"
  },
  {
    "name": "BRAVARSKO MEHANIČARSKA RADNJA I TRGOVINA NA VELIKO U TRANZITU AGROMETAL DRAGIŠA CARIĆ PR SOMBORwww.agrometal-rs.com",
    "url": "http://www.scoring.rs/Firma/BRAVARSKO%20MEHANI%C4%8CARSKA%20RADNJA%20I%20TRGOVINA%20NA%20VELIKO%20U%20TRANZITU%20AGROMETAL%20DRAGI%C5%A0A%20CARI%C4%86%20PR%20SOMBOR_348425",
    "county": "Sombor",
    "full_name": "BRAVARSKO MEHANIČARSKA RADNJA I TRGOVINA NA VELIKO U TRANZITU AGROMETAL DRAGIŠA CARIĆ PR SOMBOR",
    "location": "SOMBOR",
    "address": "ROKOVAČKI PUT BB",
    "phone": "025451322",
    "website": "www.agrometal-rs.com",
    "mb": "54312920",
    "pib": "100605969",
    "active_funds": "92.660",
    "income": "125.689",
    "neto": "6.096",
    "employees": "10",
    "score": "C"
  },
  {
    "name": "OMNIS TOURS",
    "url": "http://www.scoring.rs/Firma/OMNIS%20TOURS_828245",
    "county": "Sombor",
    "full_name": "OMNIS TOURS DOO KLJAJIĆEVO",
    "location": "KLJAJIĆEVO",
    "address": "NJEGOŠEVA 46",
    "phone": "+381 21 4722964",
    "mb": "20908297",
    "pib": "107975102",
    "active_funds": "2.532",
    "income": "2.205",
    "neto": "-1.499",
    "employees": "3",
    "score": "EEE"
  },
  {
    "name": "SOMBORELEKTROwww.somborelektro.rs",
    "url": "http://www.scoring.rs/Firma/SOMBORELEKTRO_48157",
    "county": "Sombor",
    "full_name": "SOMBORELEKTRO SPOLJNA I UNUTRAŠNJA TRGOVINA NA VELIKO I MALO DOO, SOMBOR",
    "location": "Sombor",
    "address": "ADI ENDRE 27",
    "phone": "025464643",
    "website": "www.somborelektro.rs",
    "mb": "08286523",
    "pib": "100017369",
    "active_funds": "1.721.099",
    "income": "4.754.198",
    "neto": "135.092",
    "employees": "147",
    "score": "AA"
  },
  {
    "name": "PANAGRAR DOO BEZDAN",
    "url": "http://www.scoring.rs/Firma/PANAGRAR%20DOO%20BEZDAN_158271",
    "county": "Sombor",
    "full_name": "PRIVREDNO DRUŠTVO ZA PROMET, POSREDOVANJE I USLUGE PANAGRAR DOO BEZDAN",
    "location": "BEZDAN",
    "address": "NOVA 2",
    "phone": "025810674",
    "mb": "20236914",
    "pib": "104797638",
    "active_funds": "38.899",
    "income": "141.397",
    "neto": "1.246",
    "employees": "4",
    "score": "BB"
  },
  {
    "name": "RM COMPANY DOO SOMBOR",
    "url": "http://www.scoring.rs/Firma/RM%20COMPANY%20DOO%20SOMBOR_49509",
    "county": "Sombor",
    "full_name": "RM COMPANY DOO ZA SERVISIRANJE VOZILA EXPORT IMPORT, SOMBOR",
    "location": "SOMBOR",
    "address": "INDUSTRIJSKA ZONA JUG 3",
    "phone": "02538757",
    "mb": "08360316",
    "pib": "100273028",
    "active_funds": "2.750",
    "income": "5.686",
    "neto": "65",
    "employees": "4",
    "score": "D"
  },
  {
    "name": "PP AGROPLOD DOO STAPAR",
    "url": "http://www.scoring.rs/Firma/PP%20AGROPLOD%20DOO%20STAPAR_50413",
    "county": "Sombor",
    "full_name": "POLJOPRIVREDNA PROIZVODNJA AGROPLOD DOO, STAPAR",
    "location": "STAPAR",
    "address": "MILOŠA OBILIĆA 8",
    "phone": "025827663",
    "mb": "08419400",
    "pib": "100613145",
    "active_funds": "1.057.756",
    "income": "493.115",
    "neto": "38.419",
    "employees": "18",
    "score": "BBB"
  },
  {
    "name": "LASTA DOOwww.lastadoo.com",
    "url": "http://www.scoring.rs/Firma/LASTA%20DOO_50587",
    "county": "Sombor",
    "full_name": "LASTA DOO PREDUZEĆE ZA PROIZVODNJU,TRGOVINU I USLUGE, SOMBOR",
    "location": "SOMBOR",
    "address": "MAKSIMA GORKOG 49",
    "phone": "025440303",
    "website": "www.lastadoo.com",
    "mb": "08433607",
    "pib": "100614417",
    "active_funds": "71.753",
    "income": "137.570",
    "neto": "5.515",
    "employees": "6",
    "score": "A"
  },
  {
    "name": "BOJAGIĆ",
    "url": "http://www.scoring.rs/Firma/BOJAGI%C4%86_50775",
    "county": "Sombor",
    "full_name": "PREDUZEĆE ZA TRGOVINU I USLUGE BOJAGIĆ EXPORT-IMPORT DOO, SOMBOR",
    "location": "Sombor",
    "address": "VASE PELAGIĆA 46",
    "phone": "025420233",
    "mb": "08448361",
    "pib": "101842152",
    "active_funds": "48.584",
    "income": "45.884",
    "neto": "653",
    "employees": "10",
    "score": "CCC"
  },
  {
    "name": "ZDRAVO PRODUKT",
    "url": "http://www.scoring.rs/Firma/ZDRAVO%20PRODUKT_803214",
    "county": "Sombor",
    "full_name": "DRUŠTVO SA OGRANIČENOM ODGOVORNOŠĆU ZA PROIZVODNJU TRGOVINU I USLUGE ZDRAVO PRODUKT DOO RIĐICA",
    "location": "Riđica",
    "address": "NIKOLE TESLE 30 B",
    "phone": "+381 63 510653",
    "mb": "20853778",
    "pib": "107696323",
    "active_funds": "4.432",
    "income": "4.597",
    "neto": "293",
    "employees": "3",
    "score": "DD"
  },
  {
    "name": "AUTO CENTAR OD BEZDAN",
    "url": "http://www.scoring.rs/Firma/AUTO%20CENTAR%20OD%20BEZDAN_65058",
    "county": "Sombor",
    "full_name": "ORTAČKO DRUŠTVO ZA ODRŽAVANJE I OPRAVKU MOTORNIH VOZILA, TRGOVINU I USLUGE AUTO CENTAR-JANJIĆ JANJIĆ MITAR I DRUGI, BEZDAN",
    "location": "BEZDAN",
    "address": "SOMBORSKI PUT BB",
    "phone": "025810408",
    "mb": "08797935",
    "pib": "103096576",
    "active_funds": "520",
    "income": "5.319",
    "neto": "168",
    "employees": "3",
    "score": "CCC"
  },
  {
    "name": "POLJOPRIVREDNA APOTEKA AGROFARM LJILJANA GORJANAC PREDUZETNIK SOMBORwww.agrofarm.rs",
    "url": "http://www.scoring.rs/Firma/POLJOPRIVREDNA%20APOTEKA%20AGROFARM%20LJILJANA%20GORJANAC%20PREDUZETNIK%20SOMBOR_357095",
    "county": "Sombor",
    "full_name": "POLJOPRIVREDNA APOTEKA AGROFARM LJILJANA GORJANAC PREDUZETNIK SOMBOR",
    "location": "SOMBOR",
    "address": "FILIPA KLJAIĆA 11",
    "phone": "+381 (0)25 421564",
    "website": "www.agrofarm.rs",
    "mb": "54524013",
    "pib": "100273817",
    "active_funds": "1.819",
    "income": "30.237",
    "neto": "541",
    "employees": "3",
    "score": "BBB"
  },
  {
    "name": "SIDWOOD",
    "url": "http://www.scoring.rs/Firma/SIDWOOD_175985",
    "county": "Sombor",
    "full_name": "PRIVREDNO DRUŠTVO ZA OBRADU DRVETA SIDWOOD DOO, BAČKI MONOŠTOR",
    "location": "BAČKI MONOŠTOR",
    "address": "BAŠTOVANSKA BB",
    "phone": "025420449",
    "mb": "20431814",
    "pib": "105653705",
    "active_funds": "88.717",
    "income": "105.137",
    "neto": "6.444",
    "employees": "16",
    "score": "AA"
  },
  {
    "name": "AWA HUMAN RESOURCES 2015 DOO",
    "url": "http://www.scoring.rs/Firma/AWA%20HUMAN%20RESOURCES%202015%20DOO_914776",
    "county": "Sombor",
    "full_name": "AWA HUMAN RESOURCES 2015 DOO BEZDAN",
    "location": "BEZDAN",
    "address": "ŽRTAVA FAŠIZMA 60",
    "phone": "063/475529",
    "mb": "21091588",
    "pib": "108908747",
    "active_funds": "24.224",
    "income": "240.845",
    "neto": "4.001",
    "employees": "139",
    "score": "A"
  },
  {
    "name": "CRVENI SIGNAL DOO SOMBORwww.crvenisignal.rs",
    "url": "http://www.scoring.rs/Firma/CRVENI%20SIGNAL%20DOO%20SOMBOR_46127",
    "county": "Sombor",
    "full_name": "DRUŠTVO SA OGRANIČENOM ODGOVORNOŠĆU ZA TRGOVINU, PROMET, TURIZAM I OBUKU VOZAČA MOTORNIH VOZILA CRVENI SIGNAL SOMBOR",
    "location": "SOMBOR",
    "address": "DVADESETDRUGOG DECEMBRA 40",
    "phone": "02529007",
    "website": "www.crvenisignal.rs",
    "mb": "08217408",
    "pib": "100276075",
    "active_funds": "46.875",
    "income": "14.089",
    "neto": "469",
    "employees": "6",
    "score": "B"
  },
  {
    "name": "TRGOVINSKO ZANATSKA RADNJATRITON MERLI TIBOR PR SOMBOR",
    "url": "http://www.scoring.rs/Firma/TRGOVINSKO%20ZANATSKA%20RADNJATRITON%20MERLI%20TIBOR%20PR%20SOMBOR_380272",
    "county": "Sombor",
    "full_name": "TRGOVINSKO ZANATSKA RADNJATRITON MERLI TIBOR PR SOMBOR",
    "location": "SOMBOR",
    "address": "TOZE MARKOVIĆA 5",
    "phone": "025421278",
    "mb": "55000247",
    "pib": "100660473",
    "active_funds": "9.500",
    "income": "15.261",
    "neto": "499",
    "employees": "3",
    "score": "CCC"
  },
  {
    "name": "AGROBIRO DOO ČONOPLJA",
    "url": "http://www.scoring.rs/Firma/AGROBIRO%20DOO%20%C4%8CONOPLJA_196713",
    "county": "Sombor",
    "full_name": "DOO ZA TRGOVINU, PROIZVODNJU I USLUGE AGROBIRO, ČONOPLJA",
    "location": "ČONOPLJA",
    "address": "NIKOLE TESLE 48",
    "mb": "20659947",
    "pib": "106689157",
    "active_funds": "30.974",
    "income": "34.315",
    "neto": "620",
    "employees": "6",
    "score": "A"
  },
  {
    "name": "VENAC GRAĐEVINSKO ZANATSKA RADNJA I POSREDOVANJE U TRGOVINI NA VELIKO VESELIN KOVAČEVIĆ PREDUZETNIK, SOMBOR",
    "url": "http://www.scoring.rs/Firma/VENAC%20GRA%C4%90EVINSKO%20ZANATSKA%20RADNJA%20I%20POSREDOVANJE%20U%20TRGOVINI%20NA%20VELIKO%20VESELIN%20KOVA%C4%8CEVI%C4%86%20PREDUZETNIK%2c_429375",
    "county": "Sombor",
    "full_name": "VENAC GRAĐEVINSKO ZANATSKA RADNJA I POSREDOVANJE U TRGOVINI NA VELIKO VESELIN KOVAČEVIĆ PREDUZETNIK, SOMBOR",
    "location": "SOMBOR",
    "address": "VALJEVSKA 41",
    "phone": "02528677",
    "mb": "55811326",
    "pib": "102754574",
    "active_funds": "13.158",
    "income": "20.936",
    "neto": "665",
    "employees": "7",
    "score": "DDD"
  },
  {
    "name": "LIRA MENJAČNICA MILOŠ BRKIĆ PREDUZETNIK SOMBOR",
    "url": "http://www.scoring.rs/Firma/LIRA%20MENJA%C4%8CNICA%20MILO%C5%A0%20BRKI%C4%86%20PREDUZETNIK%20SOMBOR_526857",
    "county": "Sombor",
    "full_name": "LIRA MENJAČNICA MILOŠ BRKIĆ PREDUZETNIK SOMBOR",
    "location": "SOMBOR",
    "address": "GRUJE DEDIĆA 12A",
    "mb": "57156848",
    "pib": "104104082",
    "active_funds": "5.001",
    "income": "6.551",
    "neto": "268",
    "employees": "4",
    "score": "B"
  },
  {
    "name": "TRGOVINA NA MALO, POSREDOVANJE U TRGOVINI I TRGOVINA NA VELIKO ILIĆ ZORAN ILIĆ PREDUZETNIK SOMBOR",
    "url": "http://www.scoring.rs/Firma/TRGOVINA%20NA%20MALO%2c%20POSREDOVANJE%20U%20TRGOVINI%20I%20TRGOVINA%20NA%20VELIKO%20ILI%C4%86%20ZORAN%20ILI%C4%86%20PREDUZETNIK%20SOMBOR_390111",
    "county": "Sombor",
    "full_name": "TRGOVINA NA MALO, POSREDOVANJE U TRGOVINI I TRGOVINA NA VELIKO ILIĆ ZORAN ILIĆ PREDUZETNIK SOMBOR",
    "location": "SOMBOR",
    "address": "MILOŠA OBILIĆA 53",
    "phone": "+381 (0)25 29 057",
    "mb": "55175616",
    "pib": "100272986",
    "active_funds": "735",
    "income": "5.185",
    "neto": "-5",
    "employees": "3",
    "score": "D"
  },
  {
    "name": "BALO PEKARA",
    "url": "http://www.scoring.rs/Firma/BALO%20PEKARA_816635",
    "county": "Sombor",
    "full_name": "BALO PEKARA DOO BEZDAN",
    "location": "Bezdan",
    "address": "PUSTA 22",
    "phone": "+381 25 810177",
    "mb": "20883529",
    "pib": "107854135",
    "active_funds": "7.121",
    "income": "27.953",
    "neto": "211",
    "employees": "14",
    "score": "BBB"
  },
  {
    "name": "MINIMART DOO SOMBOR",
    "url": "http://www.scoring.rs/Firma/MINIMART%20DOO%20SOMBOR_162778",
    "county": "Sombor",
    "full_name": "MINIMART DRUŠTVO SA OGRANIČENOM ODGOVORNOŠĆU ZA TRGOVINU NA VELIKO I MALO I USLUGE SOMBOR",
    "location": "SOMBOR",
    "address": "KARĐORĐEVA 22",
    "phone": "025444866",
    "mb": "20286555",
    "pib": "104983399",
    "active_funds": "21.105",
    "income": "266.178",
    "neto": "-7.927",
    "employees": "78",
    "score": "FF"
  },
  {
    "name": "D-KOMERC DOO SOMBOR",
    "url": "http://www.scoring.rs/Firma/D-KOMERC%20DOO%20SOMBOR_53897",
    "county": "Sombor",
    "full_name": "DRUŠTVO SA OGRANIČENOM ODGOVORNOŠĆU D-KOMERC ZA PROIZVODNJU, PROMET I USLUGE, SOMBOR",
    "location": "SOMBOR",
    "address": "KONJOVIĆEVA 69",
    "phone": "025/418-487",
    "mb": "08615250",
    "pib": "100017465",
    "active_funds": "44.089",
    "income": "166.202",
    "neto": "4.807",
    "employees": "8",
    "score": "A"
  },
  {
    "name": "KANCELARIJA ZA KNJIGOVODSTVENE USLUGE IK IRENA VUKOMANOV PREDUZETNIK SOMBOR",
    "url": "http://www.scoring.rs/Firma/KANCELARIJA%20ZA%20KNJIGOVODSTVENE%20USLUGE%20IK%20IRENA%20VUKOMANOV%20PREDUZETNIK%20SOMBOR_370922",
    "county": "Sombor",
    "full_name": "KANCELARIJA ZA KNJIGOVODSTVENE USLUGE IK IRENA VUKOMANOV PREDUZETNIK SOMBOR",
    "location": "SOMBOR",
    "address": "TRG SVETOG ĐORĐA 6",
    "phone": "025423831",
    "mb": "54821719",
    "pib": "100273116",
    "active_funds": "1.376",
    "income": "5.748",
    "neto": "-351",
    "employees": "4",
    "score": "D"
  },
  {
    "name": "ANKA DANOJEVIĆ PREDUZETNIK, TRGOVINSKA RADNJA MEŠOVITE ROBE D MARKET SOMBOR",
    "url": "http://www.scoring.rs/Firma/ANKA%20DANOJEVI%C4%86%20PREDUZETNIK%2c%20TRGOVINSKA%20RADNJA%20ME%C5%A0OVITE%20ROBE%20D%20MARKET%20SOMBOR_370928",
    "county": "Sombor",
    "full_name": "ANKA DANOJEVIĆ PREDUZETNIK, TRGOVINSKA RADNJA MEŠOVITE ROBE D MARKET SOMBOR",
    "location": "SOMBOR",
    "address": "HADŽIĆA SVETIĆA 2",
    "mb": "54821808",
    "pib": "101838863",
    "active_funds": "36.994",
    "income": "128.178",
    "neto": "2.080",
    "employees": "16",
    "score": "CC"
  },
  {
    "name": "MILENA ĐAPIĆ PREDUZENIK, AUTOMEHANIČARSKA RADIONICA I TRGOVINSKA RADNJA ĐAPIĆ SOMBOR",
    "url": "http://www.scoring.rs/Firma/MILENA%20%C4%90API%C4%86%20PREDUZENIK%2c%20AUTOMEHANI%C4%8CARSKA%20RADIONICA%20I%20TRGOVINSKA%20RADNJA%20%C4%90API%C4%86%20SOMBOR_370942",
    "county": "Sombor",
    "full_name": "MILENA ĐAPIĆ PREDUZENIK, AUTOMEHANIČARSKA RADIONICA I TRGOVINSKA RADNJA ĐAPIĆ SOMBOR",
    "location": "SOMBOR",
    "address": "DVANAESTE VOJVOĐANSKE UDARNE BRIGADE 130",
    "phone": "025461727",
    "mb": "54822138",
    "pib": "100275306",
    "active_funds": "12.431",
    "income": "21.998",
    "neto": "975",
    "employees": "7",
    "score": "CCC"
  },
  {
    "name": "LEDERFLEX DOO SOMBOR",
    "url": "http://www.scoring.rs/Firma/LEDERFLEX%20DOO%20SOMBOR_55876",
    "county": "Sombor",
    "full_name": "LEDERFLEX D O O ZA PROIZVODNJU PROMET I USLUGE SOMBOR",
    "location": "SOMBOR",
    "address": "PRIZRENSKA 4",
    "phone": "02532157",
    "mb": "08658994",
    "pib": "100016219",
    "active_funds": "39.130",
    "income": "89.422",
    "neto": "5.454",
    "employees": "20",
    "score": "B"
  },
  {
    "name": "DAMI-BKM-025 DOO",
    "url": "http://www.scoring.rs/Firma/DAMI-BKM-025%20DOO_860079",
    "county": "Sombor",
    "full_name": "DAMI-BKM-025 DOO SOMBOR",
    "location": "SOMBOR",
    "address": "APATINSKI PUT 88",
    "phone": "+381 63 584489",
    "mb": "20973668",
    "pib": "108311005",
    "active_funds": "4.394",
    "income": "41.199",
    "neto": "320",
    "employees": "3",
    "score": "B"
  },
  {
    "name": "BRAMONT RADNJA ZA BRAVARSKE I ZAVRŠNE RADOVE U GRAĐEVINARSTVU, DALIBOR MIŠKOVIĆ PR SOMBOR",
    "url": "http://www.scoring.rs/Firma/BRAMONT%20RADNJA%20ZA%20BRAVARSKE%20I%20ZAVR%C5%A0NE%20RADOVE%20U%20GRA%C4%90EVINARSTVU%2c%20DALIBOR%20MI%C5%A0KOVI%C4%86%20PR%20SOMBOR_414282",
    "county": "Sombor",
    "full_name": "BRAMONT RADNJA ZA BRAVARSKE I ZAVRŠNE RADOVE U GRAĐEVINARSTVU, DALIBOR MIŠKOVIĆ PR SOMBOR",
    "location": "SOMBOR",
    "address": "CENTRALA 28",
    "phone": "025429463",
    "mb": "55585741",
    "pib": "101234171",
    "active_funds": "15.538",
    "income": "32.123",
    "neto": "2.418",
    "employees": "4",
    "score": "CC"
  },
  {
    "name": "ZOLTAN PANDA PR TRGOVINSKA RADNJA P MARKET BEZDAN",
    "url": "http://www.scoring.rs/Firma/ZOLTAN%20PANDA%20PR%20TRGOVINSKA%20RADNJA%20P%20MARKET%20BEZDAN_753271",
    "county": "Sombor",
    "full_name": "ZOLTAN PANDA PR TRGOVINSKA RADNJA P MARKET BEZDAN",
    "location": "BEZDAN",
    "address": "KRATKA 15",
    "phone": "025811323",
    "mb": "62421363",
    "pib": "106994209",
    "active_funds": "2.932",
    "income": "21.671",
    "neto": "-98",
    "employees": "3",
    "score": "CCC"
  },
  {
    "name": "ZORAN MANOJLOVIĆ PR, VANLINIJSKI PREVOZ PUTNIKA MANOJLOVIĆ-TRANS STANIŠIĆ",
    "url": "http://www.scoring.rs/Firma/ZORAN%20MANOJLOVI%C4%86%20PR%2c%20VANLINIJSKI%20PREVOZ%20PUTNIKA%20MANOJLOVI%C4%86-TRANS%20STANI%C5%A0I%C4%86_753003",
    "county": "Sombor",
    "full_name": "ZORAN MANOJLOVIĆ PR, VANLINIJSKI PREVOZ PUTNIKA MANOJLOVIĆ-TRANS STANIŠIĆ",
    "location": "STANIŠIĆ",
    "address": "ŠTROSMAJEROVA 27",
    "phone": "025831105",
    "mb": "62418397",
    "pib": "106989668",
    "active_funds": "4.094",
    "income": "12.987",
    "neto": "60",
    "employees": "3",
    "score": "BBB"
  },
  {
    "name": "ANDRIĆ",
    "url": "http://www.scoring.rs/Firma/ANDRI%C4%86_167032",
    "county": "Sombor",
    "full_name": "ANDRIĆ DOO ZA TRGOVINU, UGOSTITELJSTVO I TURIZAM, SOMBOR",
    "location": "SOMBOR",
    "address": "TRG KOSTE TRIFKOVIĆA BB",
    "mb": "20333332",
    "pib": "105170331",
    "active_funds": "50.596",
    "income": "51.690",
    "neto": "1.051",
    "employees": "15",
    "score": "CC"
  },
  {
    "name": "MARANTA DOO SOMBOR",
    "url": "http://www.scoring.rs/Firma/MARANTA%20DOO%20SOMBOR_141089",
    "county": "Sombor",
    "full_name": "MARANTA DRUŠTVO SA OGRANIČENOM ODGOVORNOŠĆU, SOMBOR",
    "location": "SOMBOR",
    "address": "BUKOVAC 133",
    "mb": "20047127",
    "pib": "103925541",
    "active_funds": "4.601",
    "income": "20.080",
    "neto": "-12.682",
    "employees": "18",
    "score": "FF"
  },
  {
    "name": "PROIZVODNO ZANATSKA RADNJA EUROTERM MIŠKOVIĆ DRAGANA PREDUZETNIK SOMBOR",
    "url": "http://www.scoring.rs/Firma/PROIZVODNO%20ZANATSKA%20RADNJA%20EUROTERM%20MI%C5%A0KOVI%C4%86%20DRAGANA%20PREDUZETNIK%20SOMBOR_429312",
    "county": "Sombor",
    "full_name": "PROIZVODNO ZANATSKA RADNJA EUROTERM MIŠKOVIĆ DRAGANA PREDUZETNIK SOMBOR",
    "location": "SOMBOR",
    "address": "SVETOZARA MILETIĆA 37",
    "phone": "025450818",
    "mb": "55810311",
    "pib": "102576118",
    "active_funds": "26.310",
    "income": "68.256",
    "neto": "1.149",
    "employees": "9",
    "score": "C"
  },
  {
    "name": "ANĐA SMOLČIĆ PR UGOSTITELJSKA RADNJA TOSKANA 025 SOMBOR",
    "url": "http://www.scoring.rs/Firma/AN%C4%90A%20SMOL%C4%8CI%C4%86%20PR%20UGOSTITELJSKA%20RADNJA%20TOSKANA%20025%20SOMBOR_758815",
    "county": "Sombor",
    "full_name": "ANĐA SMOLČIĆ PR UGOSTITELJSKA RADNJA TOSKANA 025 SOMBOR",
    "location": "SOMBOR",
    "address": "VENAC PETRA BOJOVIĆA 14",
    "phone": "0644493649",
    "mb": "62482451",
    "pib": "107078081",
    "active_funds": "449",
    "income": "7.452",
    "neto": "11",
    "employees": "5",
    "score": "D"
  },
  {
    "name": "AUTOPREVOZ,TRGOVINA,PROIZVODNJA I USLUGE TINA I MINA IVAN ŠTRANGAR PREDUZETNIK BAČKI MONOŠTOR",
    "url": "http://www.scoring.rs/Firma/AUTOPREVOZ%2cTRGOVINA%2cPROIZVODNJA%20I%20USLUGE%20TINA%20I%20MINA%20IVAN%20%C5%A0TRANGAR%20PREDUZETNIK%20BA%C4%8CKI%20MONO%C5%A0TOR_357119",
    "county": "Sombor",
    "full_name": "AUTOPREVOZ,TRGOVINA,PROIZVODNJA I USLUGE TINA I MINA IVAN ŠTRANGAR PREDUZETNIK BAČKI MONOŠTOR",
    "location": "BAČKI MONOŠTOR",
    "address": "OSLOBOĐENJA 58",
    "phone": "025807365",
    "mb": "54524838",
    "pib": "100605303",
    "active_funds": "12.456",
    "income": "15.935",
    "neto": "586",
    "employees": "5",
    "score": "C"
  },
  {
    "name": "PREDUZEĆE ZA PROIZVODNJU I TRGOVINU NA VELIKO I MALO METEOR-COMMERCE DOO SOMBORwww.meteorkomerc.com",
    "url": "http://www.scoring.rs/Firma/PREDUZE%C4%86E%20ZA%20PROIZVODNJU%20I%20TRGOVINU%20NA%20VELIKO%20I%20MALO%20METEOR-COMMERCE%20DOO%20SOMBOR_49699",
    "county": "Sombor",
    "full_name": "PREDUZEĆE ZA PROIZVODNJU I TRGOVINU NA VELIKO I MALO METEOR-COMMERCE DOO SOMBOR",
    "location": "SOMBOR",
    "address": "STAPARSKI PUT BB",
    "phone": "02537004",
    "website": "www.meteorkomerc.com",
    "mb": "08373035",
    "pib": "101837900",
    "active_funds": "1.967.017",
    "income": "2.786.147",
    "neto": "117.065",
    "employees": "88",
    "score": "BB"
  },
  {
    "name": "KLANICA ĆURČIĆ DOO SOMBOR",
    "url": "http://www.scoring.rs/Firma/KLANICA%20%C4%86UR%C4%8CI%C4%86%20DOO%20SOMBOR_143871",
    "county": "Sombor",
    "full_name": "KLANICA ĆURČIĆ DOO PROIZVODNJA I PRERADA MESA SOMBOR",
    "location": "SOMBOR",
    "address": "BUKOVAC NASELJE 4A",
    "phone": "025480200",
    "mb": "20077859",
    "pib": "104145676",
    "active_funds": "8.817",
    "income": "20.487",
    "neto": "147",
    "employees": "5",
    "score": "CC"
  },
  {
    "name": "ILIJA ĐURKOVIĆ DOO BEZDAN, KANALSKA OBALA BB",
    "url": "http://www.scoring.rs/Firma/ILIJA%20%C4%90URKOVI%C4%86%20DOO%20BEZDAN%2c%20KANALSKA%20OBALA%20BB_55201",
    "county": "Sombor",
    "full_name": "ILIJA ĐURKOVIĆ DRUŠTVO SA OGRANIČENOM ODGOVORNOŠĆU ZA PROIZVODNJU I DISTRIBUCIJU TEHNIČKIH GASOVA TRGOVINU I USLUGE BEZDAN",
    "location": "BEZDAN",
    "address": "KANALSKA OBALA BB",
    "phone": "025810879",
    "mb": "08647127",
    "pib": "101843643",
    "active_funds": "3.509",
    "income": "23.313",
    "neto": "-800",
    "employees": "4",
    "score": "CC"
  },
  {
    "name": "DAMIR ĐANIĆ PR RIBARSKA TAJNA",
    "url": "http://www.scoring.rs/Firma/DAMIR%20%C4%90ANI%C4%86%20PR%20RIBARSKA%20TAJNA_536442",
    "county": "Sombor",
    "full_name": "DAMIR ĐANIĆ PR TRGOVINA NA VELIKO I MALO RIBARSKA TAJNA SOMBOR",
    "location": "SOMBOR",
    "address": "ČONOPLJANSKI PUT 27A",
    "mb": "60035202",
    "pib": "104276383",
    "active_funds": "5.895",
    "income": "14.706",
    "neto": "65",
    "employees": "8",
    "score": "C"
  },
  {
    "name": "LAZENDIC D.O.O.",
    "url": "http://www.scoring.rs/Firma/LAZENDIC%20D.O.O._871677",
    "county": "Sombor",
    "full_name": "LAZENDIC D.O.O. SOMBOR",
    "location": "SOMBOR",
    "address": "GAKOVAČKI PUT 11",
    "phone": "+381 63 529930",
    "mb": "20999837",
    "pib": "108438919",
    "active_funds": "9.694",
    "income": "16.744",
    "neto": "103",
    "employees": "4",
    "score": "DDD"
  },
  {
    "name": "GUMA-S DOO SOMBOR",
    "url": "http://www.scoring.rs/Firma/GUMA-S%20DOO%20SOMBOR_205561",
    "county": "Sombor",
    "full_name": "GUMA-S DOO SOMBOR",
    "location": "SOMBOR",
    "address": "FILIPA KLJAJIĆA BB",
    "phone": "+381 25 5743203",
    "mb": "20757795",
    "pib": "107219347",
    "active_funds": "200.172",
    "income": "274.764",
    "neto": "2.190",
    "employees": "60",
    "score": "DDD"
  },
  {
    "name": "SALDO-2SG DOO",
    "url": "http://www.scoring.rs/Firma/SALDO-2SG%20DOO_808968",
    "county": "Sombor",
    "full_name": "SALDO-2SG DOO SOMBOR",
    "location": "SOMBOR",
    "address": "TRG CARA LAZARA 6",
    "phone": "+381 25 449123",
    "mb": "20878088",
    "pib": "107822639",
    "active_funds": "1.664",
    "income": "5.725",
    "neto": "560",
    "employees": "3",
    "score": "BBB"
  },
  {
    "name": "BIRO ZA GEODETSKE POSLOVE GEOCENTAR PREDRAG DRAKULIĆ PR SOMBOR",
    "url": "http://www.scoring.rs/Firma/BIRO%20ZA%20GEODETSKE%20POSLOVE%20GEOCENTAR%20PREDRAG%20DRAKULI%C4%86%20PR%20SOMBOR_608798",
    "county": "Sombor",
    "full_name": "BIRO ZA GEODETSKE POSLOVE GEOCENTAR PREDRAG DRAKULIĆ PR SOMBOR",
    "location": "SOMBOR",
    "address": "STAPARSKI PUT 6",
    "phone": "025421645",
    "mb": "60831335",
    "pib": "105183909",
    "active_funds": "20.643",
    "income": "14.534",
    "neto": "469",
    "employees": "5",
    "score": "B"
  },
  {
    "name": "MARICA TANURDŽIĆ PR ZASTUPNIK U OSIGURANJU VAŠA PREDNOST SOMBOR",
    "url": "http://www.scoring.rs/Firma/MARICA%20TANURD%C5%BDI%C4%86%20PR%20ZASTUPNIK%20U%20OSIGURANJU%20VA%C5%A0A%20PREDNOST%20SOMBOR_814858",
    "county": "Sombor",
    "full_name": "MARICA TANURDŽIĆ PR ZASTUPNIK U OSIGURANJU VAŠA PREDNOST SOMBOR",
    "location": "SOMBOR",
    "address": "VOJVOĐANSKA 33A",
    "phone": "+381 (0)64 8919013",
    "mb": "63006513",
    "pib": "107811057",
    "active_funds": "185",
    "income": "4.599",
    "neto": "1",
    "employees": "3",
    "score": "BB"
  },
  {
    "name": "ŠMAGA DOO SOMBOR",
    "url": "http://www.scoring.rs/Firma/%C5%A0MAGA%20DOO%20SOMBOR_790021",
    "county": "Sombor",
    "full_name": "ŠMAGA DRUŠTVO SA OGRANIČENOM ODGOVORNOŠĆU SOMBOR",
    "location": "SOMBOR",
    "address": "PRVOMAJSKI BULEVAR 16A",
    "phone": "+381 25 441511",
    "mb": "20834536",
    "pib": "107603373",
    "active_funds": "3.570",
    "income": "10.836",
    "neto": "1.201",
    "employees": "11",
    "score": "A"
  },
  {
    "name": "KADENA DOO SOMBOR",
    "url": "http://www.scoring.rs/Firma/KADENA%20DOO%20SOMBOR_49677",
    "county": "Sombor",
    "full_name": "TRGOVINA NA VELIKO I MALO KADENA DOO, SOMBOR",
    "location": "SOMBOR",
    "address": "ALEKSE ŠANTIĆA 5",
    "phone": "025421492",
    "mb": "08371156",
    "pib": "100611623",
    "active_funds": "10.349",
    "income": "13.506",
    "neto": "16",
    "employees": "5",
    "score": "B"
  },
  {
    "name": "ORTAČKO DRUŠTVO PING I OSTALI STAPAR",
    "url": "http://www.scoring.rs/Firma/ORTA%C4%8CKO%20DRU%C5%A0TVO%20PING%20I%20OSTALI%20STAPAR_826155",
    "county": "Sombor",
    "full_name": "ORTAČKO DRUŠTVO PING I OSTALI STAPAR",
    "location": "STAPAR",
    "address": "KARAĐORĐEV PLAC 91",
    "phone": "+381 25 423300",
    "mb": "20903759",
    "pib": "107952406",
    "active_funds": "2.105",
    "income": "2.837",
    "neto": "104",
    "employees": "3",
    "score": "C"
  },
  {
    "name": "DOO HOLLO COMPANY DOROSLOVOwww.hollocompany.rs",
    "url": "http://www.scoring.rs/Firma/DOO%20HOLLO%20COMPANY%20DOROSLOVO_200587",
    "county": "Sombor",
    "full_name": "DOO HOLLO COMPANY DOROSLOVO",
    "location": "DOROSLOVO",
    "address": "ZMAJ JOVINA 47",
    "phone": "0255862400",
    "website": "www.hollocompany.rs",
    "mb": "20702605",
    "pib": "106901837",
    "active_funds": "658.831",
    "income": "249.176",
    "neto": "418",
    "employees": "12",
    "score": "DD"
  },
  {
    "name": "GALEA-LINE MS DOO SOMBOR",
    "url": "http://www.scoring.rs/Firma/GALEA-LINE%20MS%20DOO%20SOMBOR_833945",
    "county": "Sombor",
    "full_name": "GALEA-LINE MS DOO SOMBOR",
    "location": "SOMBOR",
    "address": "FILIPA KLJAJIĆA BB",
    "phone": "+381 25 421844",
    "mb": "20919396",
    "pib": "108031390",
    "active_funds": "19.995",
    "income": "13.982",
    "neto": "16",
    "employees": "3",
    "score": "EEE"
  },
  {
    "name": "ZOO KOMERC",
    "url": "http://www.scoring.rs/Firma/ZOO%20KOMERC_836204",
    "county": "Sombor",
    "full_name": "ZORAN NIKIĆ PR TRGOVINSKA RADNJA ZOO KOMERC SOMBOR",
    "location": "SOMBOR",
    "address": "SVETOZARA MILETIĆA 40",
    "phone": "+381 (0)63 557804",
    "mb": "63173002",
    "pib": "108047255",
    "active_funds": "11.061",
    "income": "85.455",
    "neto": "2.018",
    "employees": "6",
    "score": "AA"
  },
  {
    "name": "OGI-BAKER DOO GAKOVO",
    "url": "http://www.scoring.rs/Firma/OGI-BAKER%20DOO%20GAKOVO_200030",
    "county": "Sombor",
    "full_name": "OGI-BAKER DOO, GAKOVO",
    "location": "GAKOVO",
    "address": "KRALJA PETRA I 21",
    "mb": "20696486",
    "pib": "106870396",
    "active_funds": "15.425",
    "income": "18.655",
    "neto": "601",
    "employees": "3",
    "score": "E"
  },
  {
    "name": "FENIKS ECO TRADE DOO",
    "url": "http://www.scoring.rs/Firma/FENIKS%20ECO%20TRADE%20DOO_844962",
    "county": "Sombor",
    "full_name": "FENIKS ECO TRADE DOO STANIŠIĆ",
    "location": "STANIŠIĆ",
    "address": "CARA LAZARA 3",
    "phone": "+381 64 1202979",
    "mb": "20941898",
    "pib": "108156873",
    "active_funds": "2.450",
    "income": "17.102",
    "neto": "554",
    "employees": "3",
    "score": "CCC"
  },
  {
    "name": "KANON-TRADE",
    "url": "http://www.scoring.rs/Firma/KANON-TRADE_55770",
    "county": "Sombor",
    "full_name": "DRUŠTVO ZA PROIZVODNJU, PROMET, USLUGE I MARKETING KANON-TRADE DOO SOMBOR",
    "location": "Sombor",
    "address": "UROŠA PREDIĆA BB",
    "phone": "025428932",
    "mb": "08656991",
    "pib": "100614685",
    "active_funds": "88.722",
    "income": "79.644",
    "neto": "752",
    "employees": "13",
    "score": "B"
  },
  {
    "name": "SREĆA 025 DOO SOMBOR",
    "url": "http://www.scoring.rs/Firma/SRE%C4%86A%20025%20DOO%20SOMBOR_920563",
    "county": "Sombor",
    "full_name": "SREĆA 025 DOO SOMBOR",
    "location": "SOMBOR",
    "address": "STAPARSKI PUT BB",
    "phone": "0255440404",
    "mb": "21104264",
    "pib": "108977252",
    "active_funds": "49.506",
    "income": "131.932",
    "neto": "3.228",
    "employees": "7",
    "score": "CC"
  },
  {
    "name": "DOO SPORTMARKET SOMBOR",
    "url": "http://www.scoring.rs/Firma/DOO%20SPORTMARKET%20SOMBOR_904162",
    "county": "Sombor",
    "full_name": "DRUŠTVO SA OGRANIČENOM ODGOVORNOŠĆU SPORTMARKET SOMBOR",
    "location": "SOMBOR",
    "address": "KRALJA PETRA I 16",
    "mb": "21066729",
    "pib": "108784277",
    "active_funds": "15.320",
    "income": "35.114",
    "neto": "3.216",
    "employees": "5",
    "score": "BB"
  },
  {
    "name": "SOMBORMONT",
    "url": "http://www.scoring.rs/Firma/SOMBORMONT_50373",
    "county": "Sombor",
    "full_name": "SOMBORMONT DOO PREDUZEĆE ZA INŽENJERING I KONSALTING SOMBOR",
    "location": "SOMBOR",
    "address": "MITE POPOVIĆA 9",
    "phone": "025460202",
    "mb": "08416494",
    "pib": "100613387",
    "active_funds": "4.088",
    "income": "12.363",
    "neto": "226",
    "employees": "8",
    "score": "CCC"
  },
  {
    "name": "AGROKLASTER SOMBOR DOO SOMBOR",
    "url": "http://www.scoring.rs/Firma/AGROKLASTER%20SOMBOR%20DOO%20SOMBOR_915392",
    "county": "Sombor",
    "full_name": "AGROKLASTER SOMBOR DRUŠTVO SA OGRANIČENOM ODGOVORNOŠĆU ZA PROIZVODNJU TRGOVINU I USLUGE SOMBOR",
    "location": "SOMBOR",
    "address": "CENTRALA BB",
    "mb": "21092380",
    "pib": "108913259",
    "active_funds": "314.533",
    "income": "190.693",
    "neto": "2.426",
    "employees": "7",
    "score": "DD"
  },
  {
    "name": "BOJAN DRAGOJEVIĆ PR, MENJAČNICA SHILING, KLJAJIĆEVO",
    "url": "http://www.scoring.rs/Firma/BOJAN%20DRAGOJEVI%C4%86%20PR%2c%20MENJA%C4%8CNICA%20SHILING%2c%20KLJAJI%C4%86EVO_695684",
    "county": "Sombor",
    "full_name": "BOJAN DRAGOJEVIĆ PR, MENJAČNICA SHILING, KLJAJIĆEVO",
    "location": "KLJAJIĆEVO",
    "address": "MOŠE PIJADE 46",
    "phone": "025812240",
    "mb": "61787500",
    "pib": "105986197",
    "active_funds": "3.272",
    "income": "2.887",
    "neto": "76",
    "employees": "3",
    "score": "BB"
  },
  {
    "name": "EUROŠPED",
    "url": "http://www.scoring.rs/Firma/EURO%C5%A0PED_52362",
    "county": "Sombor",
    "full_name": "EUROŠPED DOO PREDUZEĆE ZA SPOLJNU I UNUTRAŠNJU TRGOVINU, POSREDOVANJE I ŠPEDICIJU, SOMBOR",
    "location": "SOMBOR",
    "address": "INDUSTRIJSKI PUT BB",
    "phone": "02534499",
    "mb": "08572542",
    "pib": "100604755",
    "active_funds": "6.957",
    "income": "8.067",
    "neto": "2.066",
    "employees": "3",
    "score": "A"
  },
  {
    "name": "APIUM DOO SOMBORwww.prirodnilek.com",
    "url": "http://www.scoring.rs/Firma/APIUM%20DOO%20SOMBOR_197851",
    "county": "Sombor",
    "full_name": "APIUM DOO ZA PROIZVODNJU, TRGOVINU I USLUGE, SOMBOR",
    "location": "SOMBOR",
    "address": "JOVANA POPOVIĆA 6",
    "phone": "+381 25 437195",
    "website": "www.prirodnilek.com",
    "mb": "20672510",
    "pib": "106747995",
    "active_funds": "2.576",
    "income": "6.492",
    "neto": "110",
    "employees": "3",
    "score": "CC"
  },
  {
    "name": "DESPOT-NET DOO SOMBOR",
    "url": "http://www.scoring.rs/Firma/DESPOT-NET%20DOO%20SOMBOR_927963",
    "county": "Sombor",
    "full_name": "DESPOT-NET DOO TRGOVINA NA VELIKO MAŠINAMA I OPREMOM SOMBOR",
    "location": "SOMBOR",
    "address": "SOLUNSKIH BORACA BB",
    "phone": "+381 63 1834603",
    "mb": "21116840",
    "pib": "109041319",
    "active_funds": "6.392",
    "income": "1.780",
    "neto": "132",
    "employees": "3",
    "score": "E"
  },
  {
    "name": "DRUŠTVO ZA INŽENJERING I IZGRADNJU CVET DMB INŽENJERING DOO BEZDAN",
    "url": "http://www.scoring.rs/Firma/DRU%C5%A0TVO%20ZA%20IN%C5%BDENJERING%20I%20IZGRADNJU%20CVET%20DMB%20IN%C5%BDENJERING%20DOO%20BEZDAN_204436",
    "county": "Sombor",
    "full_name": "DRUŠTVO ZA INŽENJERING I IZGRADNJU CVET DMB INŽENJERING DOO BEZDAN",
    "location": "BEZDAN",
    "address": "BEZDAN BB",
    "mb": "20745045",
    "pib": "107117977",
    "active_funds": "30.257",
    "income": "31.710",
    "neto": "-715",
    "employees": "3",
    "score": "FF"
  },
  {
    "name": "EKO-FIELD PLUS DOO ČONOPLJA, NIKOLE TESLE 10",
    "url": "http://www.scoring.rs/Firma/EKO-FIELD%20PLUS%20DOO%20%C4%8CONOPLJA%2c%20NIKOLE%20TESLE%2010_206260",
    "county": "Sombor",
    "full_name": "PRIVREDNO DRUŠTVO ZA PROIZVODNJU, TRGOVINU I USLUGE EKO-FIELD PLUS DOO ČONOPLJA",
    "location": "ČONOPLJA",
    "address": "NIKOLE TESLE 10",
    "mb": "20765615",
    "pib": "107162904",
    "active_funds": "2.177",
    "income": "7.043",
    "neto": "-887",
    "employees": "3",
    "score": "FF"
  },
  {
    "name": "MONIKA KONC PR VISOKOGRADNJA-GRUBI GRAĐEVINSKI RADOVI KONC SOMBOR",
    "url": "http://www.scoring.rs/Firma/MONIKA%20KONC%20PR%20VISOKOGRADNJA-GRUBI%20GRA%C4%90EVINSKI%20RADOVI%20KONC%20SOMBOR_743405",
    "county": "Sombor",
    "full_name": "MONIKA KONC PR VISOKOGRADNJA-GRUBI GRAĐEVINSKI RADOVI KONC SOMBOR",
    "location": "SOMBOR",
    "address": "ŠTROSMAJEROVA 14",
    "phone": "025436063",
    "mb": "62312564",
    "pib": "106842088",
    "active_funds": "2.026",
    "income": "6.008",
    "neto": "301",
    "employees": "4",
    "score": "BBB"
  },
  {
    "name": "SELEKT TIM DOO SOMBOR",
    "url": "http://www.scoring.rs/Firma/SELEKT%20TIM%20DOO%20SOMBOR_146668",
    "county": "Sombor",
    "full_name": "DRUŠTVO ZA PRUŽANJE USLUGA U STOČARSTVU SELEKT TIM DOO SOMBOR",
    "location": "SOMBOR",
    "address": "SVETOZARA MILETIĆA 33",
    "mb": "20108746",
    "pib": "104214284",
    "active_funds": "6.514",
    "income": "12.186",
    "neto": "-316",
    "employees": "9",
    "score": "B"
  },
  {
    "name": "NEW WAY-025 DOO SOMBOR",
    "url": "http://www.scoring.rs/Firma/NEW%20WAY-025%20DOO%20SOMBOR_904917",
    "county": "Sombor",
    "full_name": "DRUŠTVO ZA PROIZVODNJU PROMET USLUGE NEW WAY-025 DOO SOMBOR",
    "location": "SOMBOR",
    "address": "VENAC STEPE STEPANOVIĆA 30",
    "phone": "025482999",
    "mb": "21069892",
    "pib": "108800699",
    "active_funds": "4.245",
    "income": "11.160",
    "neto": "-401",
    "employees": "5",
    "score": "FF"
  },
  {
    "name": "METFER",
    "url": "http://www.scoring.rs/Firma/METFER_151405",
    "county": "Sombor",
    "full_name": "METFER DOO PREDUZEĆE ZA TRGOVINU SEKUNDARNIH SIROVINA SOMBOR",
    "location": "Sombor",
    "address": "GAKOVAČKI PUT BB",
    "phone": "+381 63 1846104",
    "mb": "20161060",
    "pib": "104406976",
    "active_funds": "34.624",
    "income": "101.407",
    "neto": "945",
    "employees": "9",
    "score": "B"
  },
  {
    "name": "SINPOD DOO SOMBOR",
    "url": "http://www.scoring.rs/Firma/SINPOD%20DOO%20SOMBOR_197939",
    "county": "Sombor",
    "full_name": "SINPOD PREDUZEĆE ZA PROMET NA VELIKO I MALO DOO SOMBOR",
    "location": "SOMBOR",
    "address": "KRALJA PETRA I 13",
    "phone": "+381 25 433690",
    "mb": "20673478",
    "pib": "106752244",
    "active_funds": "17.961",
    "income": "49.122",
    "neto": "864",
    "employees": "3",
    "score": "BB"
  },
  {
    "name": "EMONA GRAĐEVINA D.O.O.",
    "url": "http://www.scoring.rs/Firma/EMONA%20GRA%C4%90EVINA%20D.O.O._905203",
    "county": "Sombor",
    "full_name": "EMONA GRAĐEVINA D.O.O. SOMBOR",
    "location": "SOMBOR",
    "address": "STAPARSKI PUT S-11",
    "phone": "+381 63 7144872",
    "mb": "21067377",
    "pib": "108787664",
    "active_funds": "2.394",
    "income": "7.820",
    "neto": "134",
    "employees": "7",
    "score": "C"
  },
  {
    "name": "STARI SLON",
    "url": "http://www.scoring.rs/Firma/STARI%20SLON_1120699",
    "county": "Sombor",
    "full_name": "STARI SLON DOO SOMBOR",
    "location": "SOMBOR",
    "address": "VENAC RADOMIRA PUTNIKA 21",
    "mb": "21432695",
    "pib": "111148854",
    "active_funds": "5.579",
    "income": "5.216",
    "neto": "27",
    "employees": "20",
    "score": "DDD"
  },
  {
    "name": "AUTO CITY EXPERT DOO",
    "url": "http://www.scoring.rs/Firma/AUTO%20CITY%20EXPERT%20DOO_1088195",
    "county": "Sombor",
    "full_name": "AUTO CITY EXPERT DOO SOMBOR",
    "location": "SOMBOR",
    "address": "SIVAČKI PUT 32",
    "mb": "21389625",
    "pib": "110812067",
    "active_funds": "3.966",
    "income": "6.524",
    "neto": "820",
    "employees": "4",
    "score": "DD"
  },
  {
    "name": "PAN HARVEST",
    "url": "http://www.scoring.rs/Firma/PAN%20HARVEST_960950",
    "county": "Sombor",
    "full_name": "DRUŠTVO SA OGRANIČENOM ODGOVORNOŠĆU PAN HARVEST GAKOVO",
    "location": "GAKOVO",
    "address": "VUKA S. KARADŽIĆA 16",
    "mb": "21173657",
    "pib": "109390020",
    "active_funds": "822.132",
    "income": "190.902",
    "neto": "30.719",
    "employees": "35",
    "score": "CCC"
  },
  {
    "name": "BALKAN EXPRES 2003 DOO",
    "url": "http://www.scoring.rs/Firma/BALKAN%20EXPRES%202003%20DOO_972127",
    "county": "Sombor",
    "full_name": "BALKAN EXPRES 2003 DOO SOMBOR",
    "location": "SOMBOR",
    "address": "FILIPA KLJAJIĆA 25",
    "mb": "21192970",
    "pib": "109492034",
    "active_funds": "33.608",
    "income": "38.742",
    "neto": "4.569",
    "employees": "7",
    "score": "BB"
  },
  {
    "name": "IMPERIJAL PLUS DOO SOMBOR",
    "url": "http://www.scoring.rs/Firma/IMPERIJAL%20PLUS%20DOO%20SOMBOR_955743",
    "county": "Sombor",
    "full_name": "IMPERIJAL PLUS DOO SOMBOR",
    "location": "SOMBOR",
    "address": "VUJADINA SEKULIĆA 47",
    "phone": "+381 63 537419",
    "mb": "21163562",
    "pib": "109334285",
    "active_funds": "3.011",
    "income": "58.398",
    "neto": "39",
    "employees": "54",
    "score": "CCC"
  },
  {
    "name": "GOLD PETROL VBD DOO ČONOPLJA",
    "url": "http://www.scoring.rs/Firma/GOLD%20PETROL%20VBD%20DOO%20%C4%8CONOPLJA_1026731",
    "county": "Sombor",
    "full_name": "GOLD PETROL VBD DOO ČONOPLJA",
    "location": "ČONOPLJA",
    "address": "ŠTROSMAJEROVA BB",
    "mb": "21292303",
    "pib": "110066812",
    "active_funds": "86.062",
    "income": "309.939",
    "neto": "7.389",
    "employees": "5",
    "score": "C"
  },
  {
    "name": "CORAPHARM D.O.O.",
    "url": "http://www.scoring.rs/Firma/CORAPHARM%20D.O.O._1007558",
    "county": "Sombor",
    "full_name": "CORAPHARM D.O.O. SOMBOR",
    "location": "SOMBOR",
    "address": "VENAC STEPE STEPANOVIĆA 22",
    "mb": "21256382",
    "pib": "109863476",
    "active_funds": "9.758",
    "income": "4.471",
    "neto": "-76.566",
    "employees": "3",
    "score": "DDD"
  },
  {
    "name": "TEPKO-TRADE JAGNJEVO DOO KLJAJIĆEVO",
    "url": "http://www.scoring.rs/Firma/TEPKO-TRADE%20JAGNJEVO%20DOO%20KLJAJI%C4%86EVO_1015876",
    "county": "Sombor",
    "full_name": "DRUŠTVO ZA PROIZVODNJU OPEKE I USLUGE TEPKO-TRADE JAGNJEVO DOO KLJAJIĆEVO",
    "location": "KLJAJIĆEVO",
    "address": "JAGNJEVO BB",
    "phone": "0255100099",
    "mb": "21273414",
    "pib": "109950993",
    "active_funds": "86.497",
    "income": "89.915",
    "neto": "14.495",
    "employees": "22",
    "score": "DDD"
  },
  {
    "name": "AUTO CENTAR JASMINA 025 DOO",
    "url": "http://www.scoring.rs/Firma/AUTO%20CENTAR%20JASMINA%20025%20DOO_988138",
    "county": "Sombor",
    "full_name": "AUTO CENTAR JASMINA 025 DOO SVETOZAR MILETIĆ",
    "location": "SVETOZAR MILETIĆ",
    "address": "RADNIČKA 28",
    "mb": "21218251",
    "pib": "109655436",
    "active_funds": "571",
    "income": "4.240",
    "neto": "149",
    "employees": "4",
    "score": "A"
  },
  {
    "name": "SOMBOFILI DOO",
    "url": "http://www.scoring.rs/Firma/SOMBOFILI%20DOO_1001442",
    "county": "Sombor",
    "full_name": "SOMBOFILI DOO ZA TRGOVINU I USLUGE SOMBOR",
    "location": "SOMBOR",
    "address": "SVETOZARA MILETIĆA 21",
    "mb": "21244546",
    "pib": "109797026",
    "active_funds": "5.713",
    "income": "13.690",
    "neto": "365",
    "employees": "3",
    "score": "CC"
  },
  {
    "name": "LIDER - KADROVSKE USLUGE DOO SOMBOR",
    "url": "http://www.scoring.rs/Firma/LIDER%20-%20KADROVSKE%20USLUGE%20DOO%20SOMBOR_1004450",
    "county": "Sombor",
    "full_name": "PRIVREDNO DRUŠTVO ZA OBEZBEĐIVANJE LJUDSKIH RESURSA LIDER - KADROVSKE USLUGE DOO SOMBOR",
    "location": "SOMBOR",
    "address": "STAPARSKI PUT 48",
    "mb": "21250031",
    "pib": "109828815",
    "active_funds": "6.599",
    "income": "137.376",
    "neto": "2.122",
    "employees": "26",
    "score": "A"
  },
  {
    "name": "AC TOKIĆ DOO STANIŠIĆ",
    "url": "http://www.scoring.rs/Firma/AC%20TOKI%C4%86%20DOO%20STANI%C5%A0I%C4%86_1010165",
    "county": "Sombor",
    "full_name": "AC TOKIĆ DRUŠTVO SA OGRANIČENOM ODGOVORNOŠĆU ZA TRGOVINU I USLUGE STANIŠIĆ",
    "location": "STANIŠIĆ",
    "address": "OSLOBOĐENJA 189",
    "mb": "21261947",
    "pib": "109891052",
    "active_funds": "24.937",
    "income": "11.683",
    "neto": "529",
    "employees": "3",
    "score": "CC"
  },
  {
    "name": "AUTO ŠKOLA LAV DOO SOMBOR",
    "url": "http://www.scoring.rs/Firma/AUTO%20%C5%A0KOLA%20LAV%20DOO%20SOMBOR_1061863",
    "county": "Sombor",
    "full_name": "AUTO ŠKOLA LAV DOO SOMBOR PRIVREDNO DRUŠTVO ZA OBUKU KANDIDATA ZA VOZAČE I USLUGE",
    "location": "SOMBOR",
    "address": "JNA 30",
    "mb": "21353957",
    "pib": "110473656",
    "active_funds": "2.202",
    "income": "5.363",
    "neto": "1.444",
    "employees": "4",
    "score": "BB"
  },
  {
    "name": "AUTO ŠKOLA STARTSTOP DOO",
    "url": "http://www.scoring.rs/Firma/AUTO%20%C5%A0KOLA%20STARTSTOP%20DOO_1063296",
    "county": "Sombor",
    "full_name": "AUTO ŠKOLA STARTSTOP DOO SOMBOR",
    "location": "SOMBOR",
    "address": "VENAC PETRA BOJOVIĆA 24",
    "mb": "21355623",
    "pib": "110492642",
    "active_funds": "7.144",
    "income": "11.209",
    "neto": "3.381",
    "employees": "6",
    "score": "BB"
  },
  {
    "name": "SIKO KOMERC DOO",
    "url": "http://www.scoring.rs/Firma/SIKO%20KOMERC%20DOO_1065368",
    "county": "Sombor",
    "full_name": "PRIVREDNO DRUŠTVO ZA TRGOVINU I USLUGE SIKO KOMERC DOO ALEKSA ŠANTIĆ",
    "location": "ALEKSA ŠANTIĆ",
    "address": "HERCEGOVAČKA BB",
    "mb": "21359009",
    "pib": "110522711",
    "active_funds": "967",
    "income": "4.873",
    "neto": "-187",
    "employees": "3",
    "score": "EEE"
  },
  {
    "name": "AUTO GOLF LUX",
    "url": "http://www.scoring.rs/Firma/AUTO%20GOLF%20LUX_1098881",
    "county": "Sombor",
    "full_name": "AUTO GOLF LUX DOO SOMBOR",
    "location": "SOMBOR",
    "address": "MAJORA GAVRILOVIĆA BB",
    "mb": "21402621",
    "pib": "110927249",
    "active_funds": "2.238",
    "income": "2.358",
    "neto": "211",
    "employees": "8",
    "score": "DD"
  },
  {
    "name": "SANJIN MAXY TAXY DOO",
    "url": "http://www.scoring.rs/Firma/SANJIN%20MAXY%20TAXY%20DOO_1058622",
    "county": "Sombor",
    "full_name": "SANJIN MAXY TAXY DOO SOMBOR",
    "location": "SOMBOR",
    "address": "IVE LOLE RIBARA 39",
    "mb": "21348767",
    "pib": "110426985",
    "active_funds": "21.140",
    "income": "14.134",
    "neto": "582",
    "employees": "5",
    "score": "FF"
  },
  {
    "name": "PP MILETIĆ AD SOMBORwww.abp.rs",
    "url": "http://www.scoring.rs/Firma/PP%20MILETI%C4%86%20AD%20SOMBOR_40651",
    "county": "Sombor",
    "full_name": "POLJOPRIVREDNA PROIZVODNJA MILETIĆ AKCIONARSKO DRUŠTVO SOMBOR",
    "location": "SOMBOR",
    "address": "VENAC VOJVODE RADOMIRA PUTNIKA 1",
    "phone": "025451800",
    "website": "www.abp.rs",
    "mb": "08028419",
    "pib": "101813237",
    "active_funds": "1.230.113",
    "income": "543.115",
    "neto": "49.894",
    "employees": "82",
    "score": "BBB"
  },
  {
    "name": "PROJEKTBIROwww.projektbiro.co.rs",
    "url": "http://www.scoring.rs/Firma/PROJEKTBIRO_41221",
    "county": "Sombor",
    "full_name": "DRUŠTVO SA OGRANIČENOM ODGOVORNOŠĆU ZA PROJEKTOVANJE, INŽENJERING I IZGRADNJU PROJEKTBIRO SOMBOR",
    "location": "SOMBOR",
    "address": "RADIŠIĆEVA 2",
    "phone": "062/574-201",
    "website": "www.projektbiro.co.rs",
    "mb": "08046441",
    "pib": "101843049",
    "active_funds": "12.558",
    "income": "6.550",
    "neto": "27",
    "employees": "4",
    "score": "DDD"
  },
  {
    "name": "LOVAČKO UDRUŽENJE \"ZAPADNA BAČKA\" SOMBOR",
    "url": "http://www.scoring.rs/Firma/LOVA%C4%8CKO%20UDRU%C5%BDENJE%20-ZAPADNA%20BA%C4%8CKA-%20SOMBOR_41727",
    "county": "Sombor",
    "full_name": "LOVAČKO UDRUŽENJE \"ZAPADNA BAČKA\" SOMBOR",
    "location": "SOMBOR",
    "address": "ZLATNE GREDE 20",
    "phone": "025 26778",
    "mb": "08064474",
    "pib": "101841615",
    "active_funds": "10.073",
    "income": "11.169",
    "neto": "2.181",
    "employees": "4",
    "score": "BBB"
  },
  {
    "name": "VODOKANAL SOMBORwww.vodokanal.co.rs",
    "url": "http://www.scoring.rs/Firma/VODOKANAL%20SOMBOR_41233",
    "county": "Sombor",
    "full_name": "JAVNO KOMUNALNO PREDUZEĆE VODOKANAL SOMBOR",
    "location": "SOMBOR",
    "address": "BELOG GOLUBA 5",
    "phone": "025464222",
    "website": "www.vodokanal.co.rs",
    "mb": "08046751",
    "pib": "100016155",
    "active_funds": "1.715.078",
    "income": "484.294",
    "neto": "12.983",
    "employees": "109",
    "score": "B"
  },
  {
    "name": "JAVNO KOMUNALNO PREDUZEĆE ČISTOĆA SOMBOR",
    "url": "http://www.scoring.rs/Firma/JAVNO%20KOMUNALNO%20PREDUZE%C4%86E%20%C4%8CISTO%C4%86A%20SOMBOR_41235",
    "county": "Sombor",
    "full_name": "JAVNO KOMUNALNO PREDUZEĆE ČISTOĆA SOMBOR",
    "location": "SOMBOR",
    "address": "RADE DRAKULIĆA 12",
    "phone": "02525287",
    "mb": "08046816",
    "pib": "101841922",
    "active_funds": "161.440",
    "income": "307.402",
    "neto": "2.473",
    "employees": "124",
    "score": "CCC"
  },
  {
    "name": "SUNCEwww.sunce.co.rs",
    "url": "http://www.scoring.rs/Firma/SUNCE_41854",
    "county": "Sombor",
    "full_name": "SUNCE FABRIKA ULJA I BILJNIH MASTI DOO SOMBOR",
    "location": "SOMBOR",
    "address": "STAPARSKI PUT BB",
    "phone": "02522825",
    "website": "www.sunce.co.rs",
    "mb": "08067899",
    "pib": "101843792",
    "active_funds": "1.492.634",
    "income": "3.041.380",
    "neto": "-217.539",
    "employees": "167",
    "score": "CC"
  },
  {
    "name": "PP SOMBOR D.O.O.www.abp.rs",
    "url": "http://www.scoring.rs/Firma/PP%20SOMBOR%20D.O.O._41749",
    "county": "Sombor",
    "full_name": "DRUŠTVO SA OGRANIČENOM ODGOVORNOŠĆU POLJOPRIVREDNA PROIZVODNJA SOMBOR SOMBOR",
    "location": "SOMBOR",
    "address": "VENAC VOJVODE RADOMIRA PUTNIKA 1",
    "phone": "02523177",
    "website": "www.abp.rs",
    "mb": "08064911",
    "pib": "100274287",
    "active_funds": "828.589",
    "income": "269.657",
    "neto": "9.547",
    "employees": "48",
    "score": "BBB"
  },
  {
    "name": "\"GRADSKO UDRUŽENJE PENZIONERA SOMBOR\"",
    "url": "http://www.scoring.rs/Firma/-GRADSKO%20UDRU%C5%BDENJE%20PENZIONERA%20SOMBOR-_42893",
    "county": "Sombor",
    "full_name": "\"GRADSKO UDRUŽENJE PENZIONERA SOMBOR\"",
    "location": "SOMBOR",
    "address": "VENAC PETRA BOJOVIĆA 20",
    "phone": "025 23502",
    "mb": "08090998",
    "pib": "100608316",
    "active_funds": "3.227",
    "income": "12.662",
    "neto": "613",
    "employees": "6",
    "score": "CCC"
  },
  {
    "name": "JAVNO KOMUNALNO PREDUZEĆE VODOVOD BEZDANvodovodbezdan@w802.net",
    "url": "http://www.scoring.rs/Firma/JAVNO%20KOMUNALNO%20PREDUZE%C4%86E%20VODOVOD%20BEZDAN_45324",
    "county": "Sombor",
    "full_name": "JAVNO KOMUNALNO PREDUZEĆE VODOVOD BEZDAN",
    "location": "BEZDAN",
    "address": "SOMBORSKI PUT BB",
    "phone": "025810369",
    "website": "vodovodbezdan@w802.net",
    "mb": "08189544",
    "pib": "100613555",
    "active_funds": "22.988",
    "income": "27.285",
    "neto": "357",
    "employees": "11",
    "score": "BBB"
  },
  {
    "name": "AGRI BUSINESS PARTNER DOO SOMBORwww.abp.rs",
    "url": "http://www.scoring.rs/Firma/AGRI%20BUSINESS%20PARTNER%20DOO%20SOMBOR_44993",
    "county": "Sombor",
    "full_name": "PRIVREDNO DRUŠTVO ZA UNUTRAŠNJU I SPOLJNU TRGOVINU PROIZVODNJU I PRUŽANJE USLUGA AGRI BUSINESS PARTNER DOO SOMBOR",
    "location": "SOMBOR",
    "address": "VENAC VOJVODE RADOMIRA PUTNIKA 1",
    "phone": "025451800",
    "website": "www.abp.rs",
    "mb": "08178429",
    "pib": "101841297",
    "active_funds": "1.953.728",
    "income": "359.786",
    "neto": "-1.139",
    "employees": "8",
    "score": "DD"
  },
  {
    "name": "SOMBORSKO HUMANO DRUŠTVO \"BRATSTVO\"",
    "url": "http://www.scoring.rs/Firma/SOMBORSKO%20HUMANO%20DRU%C5%A0TVO%20-BRATSTVO-_43011",
    "county": "Sombor",
    "full_name": "SOMBORSKO HUMANO DRUŠTVO \"BRATSTVO\"",
    "location": "SOMBOR",
    "address": "PRVOMAJSKI BULEVAR A-12",
    "phone": "02524838",
    "mb": "08097003",
    "pib": "100607645",
    "active_funds": "6.873",
    "income": "21.339",
    "neto": "67",
    "employees": "3",
    "score": "B"
  },
  {
    "name": "JP ENERGANAwww.energana.co.rs",
    "url": "http://www.scoring.rs/Firma/JP%20ENERGANA_44057",
    "county": "Sombor",
    "full_name": "JAVNO KOMUNALNO PREDUZEĆE ENERGANA SOMBOR",
    "location": "SOMBOR",
    "address": "MILETE PROTIĆA 14",
    "phone": "025443367",
    "website": "www.energana.co.rs",
    "mb": "08143382",
    "pib": "101841213",
    "active_funds": "548.235",
    "income": "288.367",
    "neto": "3.639",
    "employees": "35",
    "score": "DDD"
  },
  {
    "name": "BEZDAN AD BEZDANwww.ppbezdan.rs",
    "url": "http://www.scoring.rs/Firma/BEZDAN%20AD%20BEZDAN_46997",
    "county": "Sombor",
    "full_name": "POLJOPRIVREDNO PREDUZEĆE BEZDAN AKCIONARSKO DRUŠTVO, BEZDAN",
    "location": "BEZDAN",
    "address": "SOMBORSKI PUT BB",
    "phone": "025/810-320",
    "website": "www.ppbezdan.rs",
    "mb": "08246670",
    "pib": "100607127",
    "active_funds": "3.258.230",
    "income": "777.013",
    "neto": "269.580",
    "employees": "25",
    "score": "A"
  },
  {
    "name": "SOMBORMLIN",
    "url": "http://www.scoring.rs/Firma/SOMBORMLIN_48468",
    "county": "Sombor",
    "full_name": "PRIVREDNO DRUŠTVO SOMBORMLIN DOO SOMBOR",
    "location": "SOMBOR",
    "address": "STAPARSKI PUT BB",
    "phone": "02523899",
    "mb": "08300879",
    "pib": "100272269",
    "active_funds": "540.126",
    "income": "570.083",
    "neto": "10.797",
    "employees": "47",
    "score": "BB"
  },
  {
    "name": "JKP PARKING SERVIS SOMBOR SOMBORwww.parkingsombor.co.rs",
    "url": "http://www.scoring.rs/Firma/JKP%20PARKING%20SERVIS%20SOMBOR%20SOMBOR_147815",
    "county": "Sombor",
    "full_name": "JAVNO KOMUNALNO PREDUZEĆE PARKING SERVIS SOMBOR",
    "location": "SOMBOR",
    "address": "TRG CARA LAZARA 1",
    "phone": "025423000",
    "website": "www.parkingsombor.co.rs",
    "mb": "20121432",
    "pib": "104220944",
    "active_funds": "17.028",
    "income": "40.619",
    "neto": "702",
    "employees": "28",
    "score": "A"
  },
  {
    "name": "RADI SREĆE DOO SOMBOR",
    "url": "http://www.scoring.rs/Firma/RADI%20SRE%C4%86E%20DOO%20SOMBOR_161816",
    "county": "Sombor",
    "full_name": "DRUŠTVO SA OGRANIČENOM ODGOVORNOŠĆU ZA EMITOVANJE I REALIZACIJU RTV RADIO SREĆE DOO SOMBOR",
    "location": "SOMBOR",
    "address": "KRALJA PETRA I 2",
    "mb": "20275944",
    "pib": "104947492",
    "active_funds": "4.012",
    "income": "7.344",
    "neto": "260",
    "employees": "7",
    "score": "BBB"
  },
  {
    "name": "DOO CELTIS PRESS DOO SOMBOR",
    "url": "http://www.scoring.rs/Firma/DOO%20CELTIS%20PRESS%20DOO%20SOMBOR_142604",
    "county": "Sombor",
    "full_name": "DOO CELTIS PRESS ZA MARKETING I DISTRIBUCIJU SOMBOR",
    "location": "SOMBOR",
    "address": "SONĆANSKI PUT 2",
    "phone": "025444701",
    "mb": "20063840",
    "pib": "104034346",
    "active_funds": "1.907",
    "income": "10.692",
    "neto": "461",
    "employees": "7",
    "score": "CC"
  },
  {
    "name": "POGREBNO DOO BEZDAN",
    "url": "http://www.scoring.rs/Firma/POGREBNO%20DOO%20BEZDAN_64858",
    "county": "Sombor",
    "full_name": "PREDUZEĆE ZA TRGOVINU I USLUGE POGREBNO DOO BEZDAN",
    "location": "BEZDAN",
    "address": "BRATSTVA JEDINSTVA 21",
    "phone": "025560632",
    "mb": "08795355",
    "pib": "103038916",
    "active_funds": "1.968",
    "income": "3.980",
    "neto": "-648",
    "employees": "3",
    "score": "BB"
  },
  {
    "name": "UDRUŽENJE ROMA \"BAHTALE RROMA\"",
    "url": "http://www.scoring.rs/Firma/UDRU%C5%BDENJE%20ROMA%20-BAHTALE%20RROMA-_63361",
    "county": "Sombor",
    "full_name": "UDRUŽENJE ROMA \"BAHTALE RROMA\"",
    "location": "SOMBOR",
    "address": "KAMENKA GAGRČINA 26",
    "phone": "02524265",
    "mb": "08776695",
    "pib": "102652456",
    "active_funds": "20",
    "income": "1.997",
    "neto": "1",
    "employees": "4",
    "score": "BB"
  },
  {
    "name": "Centar za samostalni život osoba sa invaliditetom Sombor",
    "url": "http://www.scoring.rs/Firma/Centar%20za%20samostalni%20%C5%BEivot%20osoba%20sa%20invaliditetom%20Sombor_69434",
    "county": "Sombor",
    "full_name": "\"CENTAR ZA SAMOSTALNI ŽIVOT OSOBA SA INVALIDITETOM SOMBOR\"",
    "location": "SOMBOR",
    "address": "KOSOVSKA 2",
    "phone": "823106",
    "mb": "08848513",
    "pib": "104028098",
    "active_funds": "367",
    "income": "6.262",
    "neto": "-109",
    "employees": "11",
    "score": "BB"
  },
  {
    "name": "JKP ZELENILO SOMBORwww.zelenilosombor.co.rs",
    "url": "http://www.scoring.rs/Firma/JKP%20ZELENILO%20SOMBOR_842659",
    "county": "Sombor",
    "full_name": "JAVNO KOMUNALNO PREDUZEĆE ZELENILO SOMBOR",
    "location": "SOMBOR",
    "address": "RADE DRAKULIĆA 12",
    "phone": "025415455",
    "website": "www.zelenilosombor.co.rs",
    "mb": "20935421",
    "pib": "108122945",
    "active_funds": "67.689",
    "income": "156.602",
    "neto": "690",
    "employees": "88",
    "score": "CC"
  },
  {
    "name": "TOPIGS NORSVIN AIM DOROSLOVO D.O.O. DOROSLOVO",
    "url": "http://www.scoring.rs/Firma/TOPIGS%20NORSVIN%20AIM%20DOROSLOVO%20D.O.O.%20DOROSLOVO_920300",
    "county": "Sombor",
    "full_name": "TOPIGS NORSVIN AIM DOROSLOVO DRUŠTVO SA OGRANIČENOM ODGOVORNOŠĆU DOROSLOVO",
    "location": "DOROSLOVO",
    "address": "ZMAJ JOVINA 45",
    "phone": "+381 62 373545",
    "mb": "21096172",
    "pib": "108934765",
    "active_funds": "28.330",
    "income": "49.039",
    "neto": "12.946",
    "employees": "4",
    "score": "CCC"
  },
  {
    "name": "FIORANOwww.fiorano.rs",
    "url": "http://www.scoring.rs/Firma/FIORANO_163039",
    "county": "Sombor",
    "full_name": "DRUŠTVO ZA PROIZVODNJU, USLUGE I PRODAJU NA VELIKO TEKSTILNOG MATERIJALA I PROIZVODA FIORANO DOO SOMBOR",
    "location": "SOMBOR",
    "address": "STAPARSKI PUT BB",
    "phone": "025467500",
    "website": "www.fiorano.rs",
    "mb": "20289406",
    "pib": "104998845",
    "active_funds": "4.750.703",
    "income": "4.250.210",
    "neto": "438.992",
    "employees": "1627",
    "score": "AAA"
  },
  {
    "name": "AMK MAGNET - CENTAR ZA VOZILA",
    "url": "http://www.scoring.rs/Firma/AMK%20MAGNET%20-%20CENTAR%20ZA%20VOZILA_172510",
    "county": "Sombor",
    "full_name": "AMK MAGNET - CENTAR ZA VOZILA DOO SOMBOR",
    "location": "Sombor",
    "address": "VELJKA PETROVIĆA 16",
    "mb": "20393599",
    "pib": "105584301",
    "active_funds": "15.712",
    "income": "33.297",
    "neto": "-3.054",
    "employees": "19",
    "score": "BB"
  },
  {
    "name": "EBM-PAPST D.O.O.",
    "url": "http://www.scoring.rs/Firma/EBM-PAPST%20D.O.O._946279",
    "county": "Sombor",
    "full_name": "EBM-PAPST D.O.O. SOMBOR",
    "location": "SOMBOR",
    "address": "KONJOVIĆEVA 78",
    "mb": "21144681",
    "pib": "109221727",
    "active_funds": "407.277",
    "income": "902.611",
    "neto": "2.523",
    "employees": "90",
    "score": "C"
  },
  {
    "name": "EKO MEĐIMURJE D.O.O.",
    "url": "http://www.scoring.rs/Firma/EKO%20ME%C4%90IMURJE%20D.O.O._1065135",
    "county": "Sombor",
    "full_name": "EKO MEĐIMURJE D.O.O. SOMBOR",
    "location": "SOMBOR",
    "address": "BLAGOJEVIĆEVA 15",
    "mb": "21358576",
    "pib": "110520200",
    "active_funds": "45.626",
    "income": "",
    "neto": "",
    "employees": "27",
    "score": "BB"
  },
  {
    "name": "PROJEKT SISTEM MTI DOO SOMBOR",
    "url": "http://www.scoring.rs/Firma/PROJEKT%20SISTEM%20MTI%20DOO%20SOMBOR_808269",
    "county": "Sombor",
    "full_name": "PROJEKT SISTEM MTI DOO SOMBOR",
    "location": "SOMBOR",
    "address": "STAPARSKI PUT BB",
    "phone": "062/630-408",
    "mb": "20871393",
    "pib": "107783935",
    "active_funds": "101.343",
    "income": "53.756",
    "neto": "1.002",
    "employees": "9",
    "score": "FFF"
  },
  {
    "name": "TODOROVIĆ DRAGO",
    "url": "http://www.scoring.rs/Firma/TODOROVI%C4%86%20DRAGO_231344",
    "county": "Sombor",
    "full_name": "DANIJEL TODOROVIĆ PREDUZETNIK PEKARSKO-TRGOVINSKA RADNJA TODOROVIĆ DRAGO STAPAR",
    "location": "STAPAR",
    "address": "SVETOSAVSKA 18",
    "phone": "025451128",
    "mb": "50379388",
    "pib": "100611754",
    "active_funds": "6.328",
    "income": "11.804",
    "neto": "543",
    "employees": "6",
    "score": "C"
  },
  {
    "name": "CRVENI KRST SRBIJE-CRVENI KRST VOJVODINE-CRVENI KRST SOMBOR",
    "url": "http://www.scoring.rs/Firma/CRVENI%20KRST%20SRBIJE-CRVENI%20KRST%20VOJVODINE-CRVENI%20KRST%20SOMBOR_41731",
    "county": "Sombor",
    "full_name": "CRVENI KRST SRBIJE-CRVENI KRST VOJVODINE-CRVENI KRST SOMBOR",
    "location": "SOMBOR",
    "address": "APATINSKI PUT 19",
    "phone": "063 7006517",
    "mb": "08064598",
    "pib": "101838033",
    "active_funds": "12.594",
    "income": "23.863",
    "neto": "0",
    "employees": "5",
    "score": "B"
  },
  {
    "name": "PP KLAS DOO SVETOZAR MILETIĆ",
    "url": "http://www.scoring.rs/Firma/PP%20KLAS%20DOO%20SVETOZAR%20MILETI%C4%86_41747",
    "county": "Sombor",
    "full_name": "POLJOPRIVREDNO PREDUZEĆE KLAS DOO, SVETOZAR MILETIĆ",
    "location": "SVETOZAR MILETIĆ",
    "address": "VLADIMIRA NAZORA 1",
    "phone": "025420416",
    "mb": "08064890",
    "pib": "101840585",
    "active_funds": "42.854",
    "income": "22.882",
    "neto": "461",
    "employees": "25",
    "score": "DDD"
  },
  {
    "name": "SOMBOR-GASwww.sombor-gas.rs",
    "url": "http://www.scoring.rs/Firma/SOMBOR-GAS_57462",
    "county": "Sombor",
    "full_name": "DRUŠTVO SA OGRANIČENOM ODGOVORNOŠĆU SOMBOR-GAS ZA IZGRADNJU GASOVODA I DISTRIBUCIJU PRIRODNOG GASA, SOMBOR",
    "location": "SOMBOR",
    "address": "RADE KONČARA 30",
    "phone": "025430850",
    "website": "www.sombor-gas.rs",
    "mb": "08685193",
    "pib": "101838994",
    "active_funds": "532.341",
    "income": "342.714",
    "neto": "30.787",
    "employees": "13",
    "score": "CCC"
  },
  {
    "name": "PI PANONKA DOO SOMBORwww.panonka.co.rs",
    "url": "http://www.scoring.rs/Firma/PI%20PANONKA%20DOO%20SOMBOR_41857",
    "county": "Sombor",
    "full_name": "DRUŠTVO SA OGRANIČENOM ODGOVORNOŠĆU PREHRAMBENA INDUSTRIJA PANONKA, SOMBOR",
    "location": "SOMBOR",
    "address": "STAPARSKI PUT B.B",
    "phone": "02523255",
    "website": "www.panonka.co.rs",
    "mb": "08067945",
    "pib": "100612396",
    "active_funds": "1.656.554",
    "income": "236.358",
    "neto": "29.873",
    "employees": "36",
    "score": "FF"
  },
  {
    "name": "PLANET OBUĆA DOO SOMBOR",
    "url": "http://www.scoring.rs/Firma/PLANET%20OBU%C4%86A%20DOO%20SOMBOR_151840",
    "county": "Sombor",
    "full_name": "DRUŠTVO ZA TRGOVINU I USLUGE PLANET OBUĆA DOO, SOMBOR",
    "location": "SOMBOR",
    "address": "BAČVANSKA 16",
    "mb": "20165863",
    "pib": "104438163",
    "active_funds": "9.021",
    "income": "17.827",
    "neto": "-5.908",
    "employees": "3",
    "score": "EEE"
  },
  {
    "name": "SPORTSKI SAVEZ GRADA SOMBORA",
    "url": "http://www.scoring.rs/Firma/SPORTSKI%20SAVEZ%20GRADA%20SOMBORA_41865",
    "county": "Sombor",
    "full_name": "SPORTSKI SAVEZ GRADA SOMBORA",
    "location": "SOMBOR",
    "address": "VENAC PETRA BOJOVIĆA 11",
    "phone": "02536787",
    "mb": "08068224",
    "pib": "100122802",
    "active_funds": "105",
    "income": "9.147",
    "neto": "22",
    "employees": "7",
    "score": "BBB"
  },
  {
    "name": "PRVA ZOOTEHNIČKA STRUČNA SLUŽBA DOO",
    "url": "http://www.scoring.rs/Firma/PRVA%20ZOOTEHNI%C4%8CKA%20STRU%C4%8CNA%20SLU%C5%BDBA%20DOO_1049668",
    "county": "Sombor",
    "full_name": "PRVA ZOOTEHNIČKA STRUČNA SLUŽBA DOO STAPAR",
    "location": "STAPAR",
    "address": "KARAĐORĐEV PLAC 117",
    "mb": "21335070",
    "pib": "110310227",
    "active_funds": "1.138",
    "income": "960",
    "neto": "-1.303",
    "employees": "3",
    "score": "EE"
  },
  {
    "name": "YU AGENT BRODSKA AGENTURA DOO BEZDAN",
    "url": "http://www.scoring.rs/Firma/YU%20AGENT%20BRODSKA%20AGENTURA%20DOO%20BEZDAN_1029241",
    "county": "Sombor",
    "full_name": "YU AGENT BRODSKA AGENTURA DRUŠTVO SA OGRANIČENOM ODGOVORNOŠĆU BEZDAN",
    "location": "BEZDAN",
    "address": "ŽRTAVA FAŠIZMA 60",
    "mb": "21296279",
    "pib": "110093586",
    "active_funds": "12.795",
    "income": "48.050",
    "neto": "1.461",
    "employees": "12",
    "score": "CCC"
  },
  {
    "name": "TPP AGRICOMMERCE DOO SOMBOR",
    "url": "http://www.scoring.rs/Firma/TPP%20AGRICOMMERCE%20DOO%20SOMBOR_975698",
    "county": "Sombor",
    "full_name": "TPP AGRICOMMERCE DRUŠTVO SA OGRANIČENOM ODGOVORNOŠĆU SOMBOR",
    "location": "SOMBOR",
    "address": "TRG CARA LAZARA 6",
    "mb": "21198579",
    "pib": "109529067",
    "active_funds": "53.461",
    "income": "299.176",
    "neto": "354",
    "employees": "3",
    "score": "C"
  },
  {
    "name": "ZAPADNA BAČKAwww.zapadnabacka.co.rs",
    "url": "http://www.scoring.rs/Firma/ZAPADNA%20BA%C4%8CKA_41048",
    "county": "Sombor",
    "full_name": "Vodoprivredno društvo Zapadna Bačka, društvo s ograničenom odgovornošću, Sombor",
    "location": "Sombor",
    "address": "VOJVOĐANSKA 19",
    "phone": "025430460",
    "website": "www.zapadnabacka.co.rs",
    "mb": "08041164",
    "pib": "100613161",
    "active_funds": "162.384",
    "income": "253.536",
    "neto": "13.762",
    "employees": "76",
    "score": "A"
  },
  {
    "name": "BC-HIBRIDI DOO SOMBOR",
    "url": "http://www.scoring.rs/Firma/BC-HIBRIDI%20DOO%20SOMBOR_169194",
    "county": "Sombor",
    "full_name": "BC-HIBRIDI DOO ZA PROIZVODNJU I PROMET BILJA SOMBOR",
    "location": "SOMBOR",
    "address": "VENAC STEPE STEPANOVIĆA 30",
    "phone": "025449149",
    "mb": "20357118",
    "pib": "105332494",
    "active_funds": "368.250",
    "income": "209.394",
    "neto": "1.152",
    "employees": "3",
    "score": "DDD"
  },
  {
    "name": "DIGITAL HAJDUKOVIĆ DOO",
    "url": "http://www.scoring.rs/Firma/DIGITAL%20HAJDUKOVI%C4%86%20DOO_1006622",
    "county": "Sombor",
    "full_name": "DIGITAL HAJDUKOVIĆ DOO SOMBOR",
    "location": "SOMBOR",
    "address": "STAPARSKI PUT 32",
    "mb": "21254673",
    "pib": "109852640",
    "active_funds": "6.685",
    "income": "10.704",
    "neto": "1",
    "employees": "4",
    "score": "D"
  },
  {
    "name": "BEST - PATENT DOO",
    "url": "http://www.scoring.rs/Firma/BEST%20-%20PATENT%20DOO_968770",
    "county": "Sombor",
    "full_name": "BEST - PATENT DOO SOMBOR",
    "location": "SOMBOR",
    "address": "SVETOZARA MILETIĆA 83",
    "mb": "21185680",
    "pib": "109455927",
    "active_funds": "17.585",
    "income": "119.503",
    "neto": "5.483",
    "employees": "4",
    "score": "A"
  },
  {
    "name": "ND CREATMARK",
    "url": "http://www.scoring.rs/Firma/ND%20CREATMARK_1080139",
    "county": "Sombor",
    "full_name": "ND CREATMARK D.O.O. STAPAR",
    "location": "STAPAR",
    "address": "SIVAČKI PUT BB",
    "mb": "21379417",
    "pib": "110720332",
    "active_funds": "965",
    "income": "5.773",
    "neto": "-7.451",
    "employees": "13",
    "score": "GGG"
  },
  {
    "name": "DADA MARKET DOO",
    "url": "http://www.scoring.rs/Firma/DADA%20MARKET%20DOO_1021612",
    "county": "Sombor",
    "full_name": "DADA MARKET DOO SOMBOR-GAKOVO",
    "location": "GAKOVO",
    "address": "KRALJA PETRA I 54",
    "mb": "21284599",
    "pib": "110011585",
    "active_funds": "1.704",
    "income": "23.332",
    "neto": "3",
    "employees": "5",
    "score": "DD"
  },
  {
    "name": "GLOBAL STAN",
    "url": "http://www.scoring.rs/Firma/GLOBAL%20STAN_1059953",
    "county": "Sombor",
    "full_name": "GLOBAL STAN DOO SOMBOR",
    "location": "SOMBOR",
    "address": "PARISKA 8",
    "mb": "21351059",
    "pib": "110447586",
    "active_funds": "542",
    "income": "3.574",
    "neto": "74",
    "employees": "3",
    "score": "CCC"
  },
  {
    "name": "TP PREHRANA AD SOMBOR",
    "url": "http://www.scoring.rs/Firma/TP%20PREHRANA%20AD%20SOMBOR_40922",
    "county": "Sombor",
    "full_name": "TRGOVINSKO PREDUZEĆE PREHRANA AD SOMBOR",
    "location": "SOMBOR",
    "address": "TRG SVETOG TROJSTVA 1",
    "phone": "02525377",
    "mb": "08036101",
    "pib": "100660537",
    "active_funds": "205.380",
    "income": "11.149",
    "neto": "141",
    "employees": "3",
    "score": "BBB"
  },
  {
    "name": "JKP PROSTOR SOMBORwww.prostorsombor.rs",
    "url": "http://www.scoring.rs/Firma/JKP%20PROSTOR%20SOMBOR_842660",
    "county": "Sombor",
    "full_name": "JAVNO KOMUNALNO PREDUZEĆE PROSTOR SOMBOR",
    "location": "SOMBOR",
    "address": "TRG CARA LAZARA 1",
    "phone": "025/5150090",
    "website": "www.prostorsombor.rs",
    "mb": "20935430",
    "pib": "108122937",
    "active_funds": "95.360",
    "income": "188.226",
    "neto": "163",
    "employees": "128",
    "score": "DD"
  },
  {
    "name": "SOMBORSKI EDUKATIVNI CENTAR",
    "url": "http://www.scoring.rs/Firma/SOMBORSKI%20EDUKATIVNI%20CENTAR_74531",
    "county": "Sombor",
    "full_name": "SOMBORSKI EDUKATIVNI CENTAR",
    "location": "SOMBOR",
    "address": "STAPARSKI PUT 16",
    "phone": "063 1050025",
    "mb": "08904952",
    "pib": "106146268",
    "active_funds": "418",
    "income": "6.366",
    "neto": "0",
    "employees": "3",
    "score": "DD"
  },
  {
    "name": "KAMGRAD DOO SOMBORwww.kamgrad.hr",
    "url": "http://www.scoring.rs/Firma/KAMGRAD%20DOO%20SOMBOR_164684",
    "county": "Sombor",
    "full_name": "DRUŠTVO ZA GRAĐENJE I USLUGE KAMGRAD DOO SOMBOR",
    "location": "SOMBOR",
    "address": "KRALJA PETRA I 2",
    "phone": "0244150016",
    "website": "www.kamgrad.hr",
    "mb": "20307510",
    "pib": "105169589",
    "active_funds": "510.382",
    "income": "1.354.668",
    "neto": "-29.930",
    "employees": "8",
    "score": "B"
  },
  {
    "name": "KILOTEX DOO SOMBOR",
    "url": "http://www.scoring.rs/Firma/KILOTEX%20DOO%20SOMBOR_1011191",
    "county": "Sombor",
    "full_name": "KILOTEX DOO SOMBOR",
    "location": "SOMBOR",
    "address": "APATINSKI PUT 9",
    "mb": "21263834",
    "pib": "109900714",
    "active_funds": "4.429",
    "income": "9.482",
    "neto": "113",
    "employees": "5",
    "score": "DD"
  },
  {
    "name": "PSS SOMBOR DOO SOMBORwww.agroinstitut.co.rs",
    "url": "http://www.scoring.rs/Firma/PSS%20SOMBOR%20DOO%20SOMBOR_41853",
    "county": "Sombor",
    "full_name": "POLJOPRIVREDNA STRUČNA SLUŽBA SOMBOR DRUŠTVO SA OGRANIČENOM ODGOVORNOŠĆU, SOMBOR",
    "location": "SOMBOR",
    "address": "STAPARSKI PUT 35",
    "phone": "02522488",
    "website": "www.agroinstitut.co.rs",
    "mb": "08067864",
    "pib": "100273323",
    "active_funds": "190.892",
    "income": "188.089",
    "neto": "8.549",
    "employees": "26",
    "score": "BBB"
  },
  {
    "name": "KOALE PLUS",
    "url": "http://www.scoring.rs/Firma/KOALE%20PLUS_1098720",
    "county": "Sombor",
    "full_name": "KOALE PLUS DOO SOMBOR",
    "location": "SOMBOR",
    "address": "DVANAESTE VOJVOĐANSKE UDARNE BRIGADE 111",
    "mb": "21402583",
    "pib": "110926512",
    "active_funds": "2.221",
    "income": "8.487",
    "neto": "206",
    "employees": "16",
    "score": "CC"
  },
  {
    "name": "AGROCENTAR POPOVIĆ DOO",
    "url": "http://www.scoring.rs/Firma/AGROCENTAR%20POPOVI%C4%86%20DOO_997613",
    "county": "Sombor",
    "full_name": "AGROCENTAR POPOVIĆ DOO KLJAJIĆEVO",
    "location": "KLJAJIĆEVO",
    "address": "BRANKA RADIČEVIĆA 17",
    "mb": "21236527",
    "pib": "109754816",
    "active_funds": "15.081",
    "income": "18.975",
    "neto": "-8.021",
    "employees": "4",
    "score": "F"
  },
  {
    "name": "ZRNO-AGRAR DOO ČONOPLJA",
    "url": "http://www.scoring.rs/Firma/ZRNO-AGRAR%20DOO%20%C4%8CONOPLJA_206121",
    "county": "Sombor",
    "full_name": "ZRNO-AGRAR DOO ZA PROIZVODNJU I PROMET STOČNE HRANE I MEŠOVITE ROBE ČONOPLJA",
    "location": "ČONOPLJA",
    "address": "NIKOLE TESLE 49",
    "phone": "025845036",
    "mb": "20764015",
    "pib": "107256604",
    "active_funds": "45.075",
    "income": "54.198",
    "neto": "4.364",
    "employees": "14",
    "score": "CC"
  },
  {
    "name": "NIDEL AGRAR",
    "url": "http://www.scoring.rs/Firma/NIDEL%20AGRAR_819822",
    "county": "Sombor",
    "full_name": "DRUŠTVO SA OGRANIČENOM ODGOVORNOŠĆU ZA TRGOVINU I USLUGE NIDEL AGRAR DOO SOMBOR",
    "location": "SOMBOR",
    "address": "VENAC ŽIVOJINA MIŠIĆA 4",
    "phone": "0255420569",
    "mb": "20888881",
    "pib": "107878950",
    "active_funds": "53.106",
    "income": "899.287",
    "neto": "1.414",
    "employees": "4",
    "score": "CCC"
  },
  {
    "name": "ELEKTROINSTALATERSKA RADNJA ĐORĐE MADŽAREV PREDUZETNIK, SOMBOR",
    "url": "http://www.scoring.rs/Firma/ELEKTROINSTALATERSKA%20RADNJA%20%C4%90OR%C4%90E%20MAD%C5%BDAREV%20PREDUZETNIK%2c%20SOMBOR_231310",
    "county": "Sombor",
    "full_name": "ELEKTROINSTALATERSKA RADNJA ĐORĐE MADŽAREV PREDUZETNIK, SOMBOR",
    "location": "SOMBOR",
    "address": "VUJADINA SEKULIĆA 3",
    "mb": "50378268",
    "pib": "101840761",
    "active_funds": "6.752",
    "income": "6.209",
    "neto": "197",
    "employees": "5",
    "score": "CC"
  },
  {
    "name": "RALE-MESARA I KLANICA DOO",
    "url": "http://www.scoring.rs/Firma/RALE-MESARA%20I%20KLANICA%20DOO_1067509",
    "county": "Sombor",
    "full_name": "RALE-MESARA I KLANICA DOO SOMBOR",
    "location": "SOMBOR",
    "address": "STAPARSKI PUT 1",
    "mb": "21362182",
    "pib": "110552164",
    "active_funds": "6.486",
    "income": "36.875",
    "neto": "1.000",
    "employees": "10",
    "score": "A"
  },
  {
    "name": "SOMBOLED DOO SOMBORwww.somboled.rs",
    "url": "http://www.scoring.rs/Firma/SOMBOLED%20DOO%20SOMBOR_41858",
    "county": "Sombor",
    "full_name": "SOMBOLED DRUŠTVO SA OGRANIČENOM ODGOVORNOŠĆU ZA PROIZVODNJU I PRERADU MLEKA SOMBOR",
    "location": "SOMBOR",
    "address": "GAKOVAČKI PUT BB",
    "phone": "025467300",
    "website": "www.somboled.rs",
    "mb": "08067953",
    "pib": "100612562",
    "active_funds": "4.810.610",
    "income": "7.203.690",
    "neto": "472.406",
    "employees": "338",
    "score": "AAA"
  },
  {
    "name": "BRODOGRADILIŠTE DUNAV DOO BEZDAN",
    "url": "http://www.scoring.rs/Firma/BRODOGRADILI%C5%A0TE%20DUNAV%20DOO%20BEZDAN_790281",
    "county": "Sombor",
    "full_name": "DRUŠTVO SA OGRANIČENOM ODGOVORNOŠĆU BRODOGRADILIŠTE DUNAV BEZDAN",
    "location": "BEZDAN",
    "address": "KANALSKA OBALA BB",
    "mb": "20837560",
    "pib": "107618370",
    "active_funds": "50.640",
    "income": "223",
    "neto": "-3.461",
    "employees": "9",
    "score": "B"
  },
  {
    "name": "MAGELAN DOO SOMBOR",
    "url": "http://www.scoring.rs/Firma/MAGELAN%20DOO%20SOMBOR_881370",
    "county": "Sombor",
    "full_name": "MAGELAN DOO SOMBOR",
    "location": "SOMBOR",
    "address": "ŠIĐANI BB",
    "mb": "21016977",
    "pib": "108527288",
    "active_funds": "34.221",
    "income": "78.756",
    "neto": "1.359",
    "employees": "6",
    "score": "CC"
  },
  {
    "name": "SEVERPLAST GRADNJA DOO SOMBOR",
    "url": "http://www.scoring.rs/Firma/SEVERPLAST%20GRADNJA%20DOO%20SOMBOR_150915",
    "county": "Sombor",
    "full_name": "SEVERPLAST GRADNJA DOO SOMBOR",
    "location": "SOMBOR",
    "address": "CENTRALA BB",
    "phone": "025461769",
    "mb": "20155647",
    "pib": "104407008",
    "active_funds": "10.022",
    "income": "16.408",
    "neto": "172",
    "employees": "4",
    "score": "C"
  },
  {
    "name": "PP FEKETIĆ AD SOMBORwww.abp.rs",
    "url": "http://www.scoring.rs/Firma/PP%20FEKETI%C4%86%20AD%20SOMBOR_41764",
    "county": "Sombor",
    "full_name": "POLJOPRIVREDNA PROIZVODNJA FEKETIĆ AKCIONARSKO DRUŠTVO SOMBOR",
    "location": "SOMBOR",
    "address": "VENAC VOJVODE RADOMIRA PUTNIKA 1",
    "phone": "024738020",
    "website": "www.abp.rs",
    "mb": "08065616",
    "pib": "101434613",
    "active_funds": "892.435",
    "income": "470.126",
    "neto": "505",
    "employees": "77",
    "score": "C"
  },
  {
    "name": "BETONJERKA AD SOMBORwww.betonjerka-sombor.co.rs",
    "url": "http://www.scoring.rs/Firma/BETONJERKA%20AD%20SOMBOR_65540",
    "county": "Sombor",
    "full_name": "PRIVREDNO DRUŠTVO ZA PROIZVODNJU I MONTAŽU PREFABRIKOVANIH BETONSKIH ELEMENATA BETONJERKA AD SOMBOR",
    "location": "SOMBOR",
    "address": "APATINSKI PUT BB",
    "phone": "025421085",
    "website": "www.betonjerka-sombor.co.rs",
    "mb": "08803927",
    "pib": "103184367",
    "active_funds": "182.493",
    "income": "212.971",
    "neto": "19.042",
    "employees": "61",
    "score": "AA"
  },
  {
    "name": "IFG INTERNATIONAL FORWARDERS GROUP DOO SOMBOR",
    "url": "http://www.scoring.rs/Firma/IFG%20INTERNATIONAL%20FORWARDERS%20GROUP%20DOO%20SOMBOR_208154",
    "county": "Sombor",
    "full_name": "PRIVREDNO DRUŠTVO ZA MEĐUNARODNU ŠPEDICIJU IFG INTERNATIONAL FORWARDERS GROUP DOO SOMBOR",
    "location": "SOMBOR",
    "address": "HAJDUK VELJKA 20",
    "phone": "0255423788",
    "mb": "20787031",
    "pib": "107359482",
    "active_funds": "11.858",
    "income": "42.728",
    "neto": "7.697",
    "employees": "4",
    "score": "AA"
  },
  {
    "name": "BOGODO DOO ALEKSA ŠANTIĆ",
    "url": "http://www.scoring.rs/Firma/BOGODO%20DOO%20ALEKSA%20%C5%A0ANTI%C4%86_204941",
    "county": "Sombor",
    "full_name": "BOGODO DOO ALEKSA ŠANTIĆ",
    "location": "ALEKSA ŠANTIĆ",
    "address": "ŠKOLSKA BB",
    "phone": "+381 25 838766",
    "mb": "20750723",
    "pib": "107153166",
    "active_funds": "117.914",
    "income": "302.114",
    "neto": "3.713",
    "employees": "32",
    "score": "CCC"
  },
  {
    "name": "SIGNAL DOO SOMBORwww.signal.co.rs",
    "url": "http://www.scoring.rs/Firma/SIGNAL%20DOO%20SOMBOR_47559",
    "county": "Sombor",
    "full_name": "SIGNAL PREDUZEĆE ZA IZRADU I ODRŽAVANJE SAOBRAĆAJNE SIGNALIZACIJE, PROJEKTOVANJE I INŽENJERING DOO, SOMBOR",
    "location": "SOMBOR",
    "address": "CENTRALA 30",
    "phone": "025420470",
    "website": "www.signal.co.rs",
    "mb": "08265330",
    "pib": "100122798",
    "active_funds": "330.712",
    "income": "322.428",
    "neto": "16.980",
    "employees": "58",
    "score": "B"
  },
  {
    "name": "AUTO-CENTAR HINIĆ DOO SOMBOR",
    "url": "http://www.scoring.rs/Firma/AUTO-CENTAR%20HINI%C4%86%20DOO%20SOMBOR_976980",
    "county": "Sombor",
    "full_name": "AUTO-CENTAR HINIĆ DOO SOMBOR",
    "location": "SOMBOR",
    "address": "NEZNANOG JUNAKA 20",
    "mb": "21200387",
    "pib": "109542017",
    "active_funds": "119",
    "income": "2.531",
    "neto": "-373",
    "employees": "3",
    "score": "EEE"
  },
  {
    "name": "AWAN PLUS",
    "url": "http://www.scoring.rs/Firma/AWAN%20PLUS_1115171",
    "county": "Sombor",
    "full_name": "AWAN PLUS DRUŠTVO SA OGRANIČENOM ODGOVORNOŠĆU BEZDAN",
    "location": "BEZDAN",
    "address": "ŽRTAVA FAŠIZMA 50",
    "mb": "21424641",
    "pib": "111091255",
    "active_funds": "886",
    "income": "1.099",
    "neto": "647",
    "employees": "3",
    "score": "BBB"
  },
  {
    "name": "SAŠA STANOJČIĆ PR ZANATSKA RADNJA I DRUMSKI PREVOZ TERETA TERMOMONT M STAPAR",
    "url": "http://www.scoring.rs/Firma/SA%C5%A0A%20STANOJ%C4%8CI%C4%86%20PR%20ZANATSKA%20RADNJA%20I%20DRUMSKI%20PREVOZ%20TERETA%20TERMOMONT%20M%20STAPAR_721930",
    "county": "Sombor",
    "full_name": "SAŠA STANOJČIĆ PR ZANATSKA RADNJA I DRUMSKI PREVOZ TERETA TERMOMONT M STAPAR",
    "location": "STAPAR",
    "address": "DR STEVANA POPOVIĆA 93A",
    "phone": "025827226",
    "mb": "62076208",
    "pib": "100611658",
    "active_funds": "4.652",
    "income": "16.738",
    "neto": "526",
    "employees": "5",
    "score": "CC"
  },
  {
    "name": "PANONIJA PHARMwww.panonijapharm.com",
    "url": "http://www.scoring.rs/Firma/PANONIJA%20PHARM_41240",
    "county": "Sombor",
    "full_name": "Privredno društvo za medicinsko snabdevanje PANONIJA PHARM D.O.O. Sombor",
    "location": "Sombor",
    "address": "VENAC STEPE STEPANOVIĆA 22",
    "phone": "025482356",
    "website": "www.panonijapharm.com",
    "mb": "08047014",
    "pib": "100613491",
    "active_funds": "391.765",
    "income": "743.852",
    "neto": "-24.464",
    "employees": "29",
    "score": "BB"
  },
  {
    "name": "NIP SOMBORSKE NOVINE AD SOMBOR",
    "url": "http://www.scoring.rs/Firma/NIP%20SOMBORSKE%20NOVINE%20AD%20SOMBOR_58601",
    "county": "Sombor",
    "full_name": "AKCIONARSKO DRUŠTVO ZA NOVINSKO IZDAVAČKU DELATNOST SOMBORSKE NOVINE, SOMBOR",
    "location": "SOMBOR",
    "address": "TRG SLOBODE 1/1",
    "phone": "02527040",
    "mb": "08703876",
    "pib": "100017512",
    "active_funds": "36.398",
    "income": "26.969",
    "neto": "819",
    "employees": "14",
    "score": "B"
  },
  {
    "name": "/www.doroslovo.rs",
    "url": "http://www.scoring.rs/Firma/-_44625",
    "county": "Sombor",
    "full_name": "ZEMLJORADNIČKA ZADRUGA DOROSLOVO DOROSLOVO",
    "location": "DOROSLOVO",
    "address": "ZMAJ JOVINA 45",
    "phone": "025862331",
    "website": "www.doroslovo.rs",
    "mb": "08167362",
    "pib": "100123274",
    "active_funds": "94.550",
    "income": "127.292",
    "neto": "13.317",
    "employees": "6",
    "score": "B"
  },
  {
    "name": "DUNAV I TISA",
    "url": "http://www.scoring.rs/Firma/DUNAV%20I%20TISA_41056",
    "county": "Sombor",
    "full_name": "Vodoprivredno privredno društvo Dunav i Tisa društvo sa ograničenom odgovornošću Sombor",
    "location": "Sombor",
    "address": "XII VOJVOĐANSKE BRIGADE 28",
    "phone": "025436499",
    "mb": "08041270",
    "pib": "100122780",
    "active_funds": "23.054",
    "income": "26.065",
    "neto": "187",
    "employees": "10",
    "score": "BBB"
  },
  {
    "name": "MARTIN KOLOVIĆ PR, KOLOVIĆ EXPRES, SOMBOR",
    "url": "http://www.scoring.rs/Firma/MARTIN%20KOLOVI%C4%86%20PR%2c%20KOLOVI%C4%86%20EXPRES%2c%20SOMBOR_748466",
    "county": "Sombor",
    "full_name": "MARTIN KOLOVIĆ PREDUZETNIK, PREVOZ PUTNIKA I ROBE U DRUMSKOM SAOBRAĆAJU KOLOVIĆ EXPRES SOMBOR",
    "location": "SOMBOR",
    "address": "CENTRALA BB",
    "phone": "062288428",
    "mb": "62368373",
    "pib": "106918048",
    "active_funds": "8.381",
    "income": "19.434",
    "neto": "733",
    "employees": "5",
    "score": "BB"
  },
  {
    "name": "DEM-HELLAS D.O.O. SOMBOR",
    "url": "http://www.scoring.rs/Firma/DEM-HELLAS%20D.O.O.%20SOMBOR_937771",
    "county": "Sombor",
    "full_name": "DEM-HELLAS D.O.O. SOMBOR",
    "location": "SOMBOR",
    "address": "FILIPA KLJAJIĆA 40",
    "mb": "21131237",
    "pib": "109138407",
    "active_funds": "131.717",
    "income": "678.344",
    "neto": "-3.358",
    "employees": "50",
    "score": "EE"
  },
  {
    "name": "AGRISER",
    "url": "http://www.scoring.rs/Firma/AGRISER_870686",
    "county": "Sombor",
    "full_name": "AGRISER D.O.O. ALEKSA ŠANTIĆ",
    "location": "ALEKSA ŠANTIĆ",
    "address": "SOLUNSKIH DOBROVOLJACA 170",
    "mb": "20980974",
    "pib": "108348394",
    "active_funds": "2.291.089",
    "income": "116.662",
    "neto": "-280.040",
    "employees": "51",
    "score": "CC"
  },
  {
    "name": "ŽITOKOMERCwww.zitomedia.co.rs",
    "url": "http://www.scoring.rs/Firma/%C5%BDITOKOMERC_46173",
    "county": "Sombor",
    "full_name": "PRIVREDNO DRUŠTVO ZA PROIZVODNJU PROMET ROBA I USLUGA ŽITOKOMERC DOO SOMBOR",
    "location": "SOMBOR",
    "address": "PROLETERSKA 15",
    "phone": "02532219",
    "website": "www.zitomedia.co.rs",
    "mb": "08218951",
    "pib": "101841800",
    "active_funds": "37.773",
    "income": "48.233",
    "neto": "802",
    "employees": "10",
    "score": "BBB"
  },
  {
    "name": "PP VOJVODINA AD SOMBORwww.abp.rs",
    "url": "http://www.scoring.rs/Firma/PP%20VOJVODINA%20AD%20SOMBOR_41112",
    "county": "Sombor",
    "full_name": "POLJOPRIVREDNA PROIZVODNJA VOJVODINA AKCIONARSKO DRUŠTVO SOMBOR",
    "location": "SOMBOR",
    "address": "V. V. R. PUTNIKA 1",
    "phone": "025881012",
    "website": "www.abp.rs",
    "mb": "08043787",
    "pib": "101568886",
    "active_funds": "1.180.205",
    "income": "451.208",
    "neto": "13.552",
    "employees": "37",
    "score": "BB"
  },
  {
    "name": "AGROPROM-TNT DOO SOMBOR",
    "url": "http://www.scoring.rs/Firma/AGROPROM-TNT%20DOO%20SOMBOR_827191",
    "county": "Sombor",
    "full_name": "AGENCIJA ZA POSREDOVANJE TRANSPORT I LOGISTIKU AGROPROM-TNT DOO SOMBOR",
    "location": "SOMBOR",
    "address": "LUGOVO BB",
    "phone": "0255484118",
    "mb": "20904968",
    "pib": "107959879",
    "active_funds": "30.627",
    "income": "60.188",
    "neto": "742",
    "employees": "9",
    "score": "DDD"
  },
  {
    "name": "VAGAR MILAN DOO",
    "url": "http://www.scoring.rs/Firma/VAGAR%20MILAN%20DOO_909529",
    "county": "Sombor",
    "full_name": "VAGAR MILAN DOO SOMBOR",
    "location": "SOMBOR",
    "address": "MILKE GRGUROVE 20",
    "phone": "+381 69 1720017",
    "mb": "21080209",
    "pib": "108849606",
    "active_funds": "8.505",
    "income": "18.627",
    "neto": "915",
    "employees": "5",
    "score": "CC"
  },
  {
    "name": "TREMAK DOO",
    "url": "http://www.scoring.rs/Firma/TREMAK%20DOO_1020019",
    "county": "Sombor",
    "full_name": "TREMAK DOO SOMBOR",
    "location": "SOMBOR",
    "address": "CENTRALA 7",
    "mb": "21281760",
    "pib": "109994982",
    "active_funds": "24.447",
    "income": "34.173",
    "neto": "-59.614",
    "employees": "52",
    "score": "EEE"
  },
  {
    "name": "FAZIS DOO SOMBOR",
    "url": "http://www.scoring.rs/Firma/FAZIS%20DOO%20SOMBOR_893391",
    "county": "Sombor",
    "full_name": "PRIVREDNO DRUŠTVO ZA PROIZVODNJU PROMET I USLUGE FAZIS DOO SOMBOR",
    "location": "SOMBOR",
    "address": "VENAC PETRA BOJOVIĆA 7/A",
    "phone": "+381 25 423164",
    "mb": "21046639",
    "pib": "108677545",
    "active_funds": "3.232",
    "income": "8.511",
    "neto": "158",
    "employees": "3",
    "score": "DDD"
  },
  {
    "name": "COV SALE DOO SOMBOR",
    "url": "http://www.scoring.rs/Firma/COV%20SALE%20DOO%20SOMBOR_959581",
    "county": "Sombor",
    "full_name": "COV SALE DOO SOMBOR",
    "location": "SOMBOR",
    "address": "ARSENIJA ČARNOJEVIĆA 10",
    "phone": "+381 62 227060",
    "mb": "21171921",
    "pib": "109380872",
    "active_funds": "10.989",
    "income": "23.567",
    "neto": "5.170",
    "employees": "9",
    "score": "CCC"
  }
]